Address,CRS,Operator,Postcode,Stationname,Lat,Loc Stanox,Lon
"Arisaig, -, PH39 4NJ",ARG,ScotRail,PH39 4NJ,Arisaig,56.91111987,"6,004",-5.841989905
"Main Street, Mallaig, PH41 4QA",MLG,ScotRail,PH41 4QA,Mallaig,57.00596993,"6,001",-5.829439976
"Morar, Highland, PH40 4PB",MRR,ScotRail,PH40 4PB,Morar,56.9670499,"6,002",-5.81651999
"A830, South of Druimindarroch, Beasdale, PH39 4NR",BSL,ScotRail,PH39 4NR,Beasdale,56.89866989,"6,005",-5.791729924
"Railway Pier, Kyle of Lochalsh, IV40 8AH",KYL,ScotRail,IV40 8AH,Kyle of Lochalsh,57.28103999,"1,071",-5.711849897
"Duirinish, -, IV40 8BD",DRN,ScotRail,IV40 8BD,Duirinish,57.31631999,"1,072",-5.696179974
"Lochailort, Highland, PH38 4LZ",LCL,ScotRail,PH38 4LZ,Lochailort,56.87413998,"6,006",-5.667319952
"Plockton, Highland, IV52 8TX",PLK,ScotRail,IV52 8TX,Plockton,57.33298992,"1,073",-5.667089927
"Duncraig, -, IV52 8TZ",DCG,ScotRail,IV52 8TZ,Duncraig,57.33491997,"1,074",-5.634159949
"Stromeferry, -, IV53 8UH",STF,ScotRail,IV53 8UH,Stromeferry,57.35198995,"1,075",-5.550609885
"Wharf Road, Penzance, Cornwall and Isles of Scilly, TR18 2LT",PNZ,Great Western Railway,TR18 2LT,Penzance,50.12238008,"85,734",-5.532499952
"Achnashellach, Highland, IV54 8YH",ACH,ScotRail,IV54 8YH,Achnashellach,57.38331998,"1,078",-5.520289948
"Station Road, Trelyon Avenue, St Ives, Cornwall, TR26 2BP",SIV,Great Western Railway,TR26 2BP,St Ives (Cornwall),50.21022003,"85,711",-5.478299958
"Railway Pier, OBAN, PA34 4LW",OBN,ScotRail,PA34 4LW,Oban,56.41163992,"6,041",-5.474789997
"Porthrepta Road, Carbis Bay, St Ives, Cornwall and Isles of Scilly, TR26 2NN",CBB,Great Western Railway,TR26 2NN,Carbis Bay,50.19740013,"85,713",-5.463319973
"Glenfinnan, -, PH37 4LS",GLF,ScotRail,PH37 4LS,Glenfinnan,56.87323993,"6,008",-5.456119932
"Attadale, -, IV54 8YX",ATT,ScotRail,IV54 8YX,Attadale,57.40682998,"1,076",-5.447769902
"Station Approach, St Erth, Cornwall, TR27 6JW",SER,Great Western Railway,TR27 6JW,St Erth,50.1706601,"85,721",-5.444389885
"Lelant, St Ives, Cornwall, TR26 3DL",LTS,Great Western Railway,TR26 3DL,Lelant Saltings,50.18018003,"85,716",-5.441649902
"Strathcarron, Highland, IV54 8YR",STC,ScotRail,IV54 8YR,Strathcarron,57.42406999,"1,077",-5.433979993
"Station Hill, Hayle, Cornwall, TR27 4NG",HYL,Great Western Railway,TR27 4NG,Hayle,50.18523008,"85,702",-5.419709991
"Trevu Road, Camborne, Cornwall and Isles of Scilly, TR14 8SR",CBN,Great Western Railway,TR14 8SR,Camborne,50.21094011,"85,622",-5.297399968
"Taynuilt, -, PA35 1JH",TAY,ScotRail,PA35 1JH,Taynuilt,56.43222,"6,048",-5.238529936
"Station Road, Redruth, Cornwall and Isles of Scilly, TR15 2AB",RED,Great Western Railway,TR15 2AB,Redruth,50.23317004,"85,601",-5.22638988
"Outward Bound Rail Station, Highland, PH33 7NN",LHE,ScotRail,PH33 7NN,Loch Eil Outward Bound,56.85273989,"6,014",-5.174169982
"Station Hill, Perranwell, Truro, Cornwall, TR3 7JY",PRW,Great Western Railway,TR3 7JY,Perranwell,50.20827007,"85,507",-5.124889959
"Corpach, -, PH33 7LS",CPA,ScotRail,PH33 7LS,Corpach,56.84339995,"6,010",-5.117309907
"Falls of Cruachan, Dalmally, PA33 1AN",FOC,ScotRail,PA33 1AN,Falls of Cruachan,56.39458999,"6,050",-5.116049883
"Station Road, Penryn, Falmouth, Cornwall, TR10 8HF",PYN,Great Western Railway,TR10 8HF,Penryn (Cornwall),50.17114006,"85,511",-5.111389934
"Banavie, -, PH33 7JF",BNV,ScotRail,PH33 7JF,Banavie,56.84277996,"6,013",-5.097879954
"Penmere Hill, Penmere, Falmouth, Cornwall, TR11 2QZ",PNM,Great Western Railway,TR11 2QZ,Penmere,50.15015011,"85,513",-5.081669943
"Achnasheen, -, IV22 2EJ",ACN,ScotRail,IV22 2EJ,Achnasheen,57.57411991,"1,079",-5.08107995
"Tom-na-Faire, Station Square, Fort William, PH33 6TQ",FTW,ScotRail,PH33 6TQ,Fort William,56.83185997,"6,025",-5.077409913
"Station Parade, Newquay, Cornwall and Isles of Scilly, TR7 2NF",NQY,Great Western Railway,TR7 2NF,Newquay,50.41510003,"85,261",-5.076399957
"Avenue Road, Falmouth, Cornwall, TR11 4AZ",FMT,Great Western Railway,TR11 4AZ,Falmouth Town,50.14761002,"85,515",-5.064719951
"Station Road, Truro, Cornwall, TR1 3HH",TRU,Great Western Railway,TR1 3HH,Truro,50.26387012,"85,501",-5.06404992
"Station Approach, Pendennis Rise, Falmouth, Cornwall, TR11 4LT",FAL,Great Western Railway,TR11 4LT,Falmouth Docks,50.15000012,"85,521",-5.056039951
"Loch Awe, -, PA33 1AQ",LHA,ScotRail,PA33 1AQ,Loch Awe,56.39996987,"6,051",-5.045889946
"Milford Haven Railway Station, Station Yard, Victoria Road, Milford Haven, SA73 3AB",MFH,Arriva Trains Wales,SA73 3AB,Milford Haven,51.71289006,"80,102",-5.039579871
"Stranraer Harbour, STRANRAER, DG9 8EJ",STR,ScotRail,DG9 8EJ,Stranraer,54.90942013,"8,653",-5.025149928
"Quintrell Downs, Newquay, Cornwall, TR8 4LJ",QUI,Great Western Railway,TR8 4LJ,Quintrell Downs,50.40179007,"85,246",-5.013009872
"Johnston Railway Station, St Peter's Road, Johnston, Haverfordwest, SA62 3PL",JOH,Arriva Trains Wales,SA62 3PL,Johnston (Pembs),51.7563101,"80,111",-4.998029887
"Station Hill,, Goodwick,, SA64 0DG",FGW,Arriva Trains Wales,SA64 0DG,Fishguard & Goodwick,52.00462009,"80,013",-4.994889985
"Fishguard Harbour Railway Station, Stena Terminal, Goodwick, SA64 0BU",FGH,Arriva Trains Wales,SA64 0BU,Fishguard Harbour,52.01341013,"80,011",-4.984719936
"Dalmally, -, PA33 1AY",DAL,ScotRail,PA33 1AY,Dalmally,56.40228989,"6,053",-4.971439981
"Haverfordwest Railway Station, Cartlett Road, Haverfordwest, Pembrokeshire, SA61 1TY",HVF,Arriva Trains Wales,SA61 1TY,Haverfordwest,51.80149004,"80,122",-4.959749886
"Station Road, St Columb, Newquay, Cornwall, TR9 6QY",SCR,Great Western Railway,TR9 6QY,St Columb Road,50.39782006,"85,244",-4.943339983
"Station Road, off A382, Achanalt, -, IV23 2QD",AAT,ScotRail,IV23 2QD,Achanalt,57.60905998,"1,081",-4.938619903
"Pembroke Dock Railway Station, Diamond Street, Pembroke Dock, SA72 6HN",PMD,Arriva Trains Wales,SA72 6HN,Pembroke Dock,51.69340011,"80,201",-4.936889875
"Spean Bridge, Highland, PH34 4EP",SBR,ScotRail,PH34 4EP,Spean Bridge,56.89077991,"6,027",-4.9212899
"Pembroke Railway Station, Station Road, Pembroke, SA71 4AH",PMB,Arriva Trains Wales,SA71 4AH,Pembroke,51.67381008,"80,202",-4.906639885
"Greenock Road, Wemyss Bay, PA18 6AA",WMS,ScotRail,PA18 6AA,Wemyss Bay,55.8787799,"7,001",-4.888529952
"Clarbeston Road Railway Station, Clarbeston Road, SA63 4UH",CLR,Arriva Trains Wales,SA63 4UH,Clarbeston Road,51.85192005,"80,199",-4.880609975
"Inverkip, Inverclyde, PA16 0AS",INP,ScotRail,PA16 0AS,Inverkip,55.90867987,"7,004",-4.869229943
"Main Street, Largs, KA30 8AN",LAR,ScotRail,KA30 8AN,Largs,55.7934199,"8,221",-4.867389879
"West Kilbride, North Ayrshire, KA23 9BP",WKB,ScotRail,KA23 9BP,West Kilbride,55.69458988,"8,202",-4.85541999
"Fairlie, North Ayrshire, KA29 0DJ",FRL,ScotRail,KA29 0DJ,Fairlie,55.75291996,"8,216",-4.853469891
"Vickarton Street, Girvan, South Ayrshire, KA26 9HF",GIR,ScotRail,KA26 9HF,Girvan,55.24678006,"8,646",-4.850589874
"Victoria Road, Roche, Cornwall, PL26 8LG",ROC,Great Western Railway,PL26 8LG,Roche,50.41906008,"85,233",-4.830529978
"IBM, Inverclyde, PA16 0XB",IBM,ScotRail,PA16 0XB,IBM Halt,55.93405993,"7,002",-4.829069926
"Garelochhead, -, G84 0EG",GCH,ScotRail,G84 0EG,Garelochhead,56.07631995,"6,105",-4.82788994
"Ardrossan, -, KA22 8BH",ADS,ScotRail,KA22 8BH,Ardrossan Harbour,55.64208992,"8,208",-4.816949914
"The Pier, Gourock, PA19 1QR",GRK,ScotRail,PA19 1QR,Gourock,55.96221992,"7,011",-4.81676993
"Roy Bridge, Highland, PH31 4AH",RYB,ScotRail,PH31 4AH,Roy Bridge,56.91241999,"6,028",-4.808339999
"Ardrossan, -, KA22 8AU",ADN,ScotRail,KA22 8AU,Ardrossan Town,55.64139998,"8,204",-4.801619915
"South Beach Road, Ardrossan, North Ayrshire, KA22 8AU",ASB,ScotRail,KA22 8AU,Ardrossan South Beach,55.64139998,"8,198",-4.801619915
"Lochluichart, Highland, IV23 2PZ",LCC,ScotRail,IV23 2PZ,Lochluichart,57.62603997,"1,082",-4.800089915
"Branchton, -, PA16 9HA",BCN,ScotRail,PA16 9HA,Branchton,55.93784996,"7,005",-4.799469924
"Fort Matilda, -, PA16 7TS",FTM,ScotRail,PA16 7TS,Fort Matilda,55.95902998,"7,012",-4.79650987
"Manorbier Railway Station, Manorbier, Tenby, SA70 7SN",MRB,Arriva Trains Wales,SA70 7SN,Manorbier,51.6582401,"80,207",-4.79395996
"Red Lane, Bugle, Cornwall and Isles of Scilly, PL26 8QP",BGL,Great Western Railway,PL26 8QP,Bugle,50.40128012,"85,231",-4.789559897
"Station Approach, High Cross Street, St Austell, PL25 4LA",SAU,Great Western Railway,PL25 4LA,St Austell,50.33939004,"85,303",-4.788979994
"BARRHILL, -, KA26 0QF",BRL,ScotRail,KA26 0QF,Barrhill,55.09663006,"8,645",-4.780779952
"Drumfrochar, -, PA15 4BY",DFR,ScotRail,PA15 4BY,Drumfrochar,55.93876992,"7,009",-4.770669897
"Bridge of Orchy, -, PA36 4AD",BRO,ScotRail,PA36 4AD,Bridge of Orchy,56.51775998,"6,037",-4.767139893
"Stevenston, North Ayrshire, KA20 3DP",STV,ScotRail,KA20 3DP,Stevenston,55.6422999,"8,123",-4.759269957
"Station Avenue, Greenock, Inverclyde, PA15 1DH",GKC,ScotRail,PA15 1DH,Greenock Central,55.9456899,"7,015",-4.752789988
"Whinhill, Inverclyde, PA15 3AH",WNL,ScotRail,PA15 3AH,Whinhill,55.93682991,"7,006",-4.748209942
"Helensburgh, -, G84 9LG",HLU,ScotRail,G84 9LG,Helensburgh Upper,56.01216998,"6,108",-4.735329906
"East Princes Street, Helensburgh, G84 7QF",HLC,ScotRail,G84 7QF,Helensburgh Central,56.00390994,"6,109",-4.732889896
"Bogston, -, PA15 2TF",BGS,ScotRail,PA15 2TF,Bogston,55.94113998,"7,028",-4.731599875
"McDougal Street, Greenock, Inverclyde, PA15 2TG",CDY,ScotRail,PA15 2TG,Cartsdyke,55.94264994,"7,023",-4.731339989
"Clunderwen Railway Station, Station Approach, Clunderwen, SA66 7NG",CUW,Arriva Trains Wales,SA66 7NG,Clunderwen,51.84034012,"80,305",-4.731199956
"Narberth Railway Station, Station Road, Narberth, SA67 8TY",NAR,Arriva Trains Wales,SA67 8TY,Narberth,51.79906012,"80,217",-4.728139955
"Luxulyan, Cornwall, PL31 2NW",LUX,Great Western Railway,PL31 2NW,Luxulyan,50.47383003,"85,225",-4.725999918
"Penally Railway Station, Penally, Tenby, SA70 7PS",PNA,Arriva Trains Wales,SA70 7PS,Penally,51.65885,"80,209",-4.722499912
"Saundersfoot Railway Station, Saundersfoot, SA69 9BG",SDF,Arriva Trains Wales,SA69 9BG,Saundersfoot,51.72080008,"80,213",-4.718079942
"-, -, G83 7DB",ART,ScotRail,G83 7DB,Arrochar & Tarbet,56.20404995,"6,101",-4.717579941
"Kilgetty Railway Station, Station Road, Kilgetty, SA68 0UF",KGT,Arriva Trains Wales,SA68 0UF,Kilgetty,51.73248009,"80,215",-4.716099981
"Station Road, Helensburgh, G84 7BQ",CGD,ScotRail,G84 7BQ,Craigendoran,55.99725994,"6,111",-4.714369954
"Tyndrum, Stirling, FK20 8RZ",TYL,ScotRail,FK20 8RZ,Tyndrum Lower,56.43639999,"6,055",-4.711199918
"Tyndrum, Stirling, FK20 8RY",UTY,ScotRail,FK20 8RY,Upper Tyndrum,56.43590994,"6,039",-4.710699917
"Dalry, -, KA24 4DE",DLY,ScotRail,KA24 4DE,Dalry,55.70622994,"8,101",-4.709779953
"Townhead, Kilwinning, KA13 6NT",KWN,ScotRail,KA13 6NT,Kilwinning,55.6561299,"8,105",-4.709629966
"Tenby Railway Station, Station Road, Tenby, SA70 7JY",TEN,Arriva Trains Wales,SA70 7JY,Tenby,51.67244002,"80,211",-4.705889981
"Eastcliffe Road, Par, Cornwall, PL24 2LT",PAR,Great Western Railway,PL24 2LT,Par,50.35636007,"85,111",-4.703719947
"Princes Street, PORT GLASGOW, PA14 5JH",PTG,ScotRail,PA14 5JH,Port Glasgow,55.93425996,"7,128",-4.690099932
"Maybole, South Ayrshire, KA19 8DS",MAY,ScotRail,KA19 8DS,Maybole,55.35658992,"8,639",-4.689779915
"Glasgow Road, Port Glasgow, PA14 5PP",WDL,ScotRail,PA14 5PP,Woodhall,55.93368987,"7,129",-4.688059977
"Garve, -, IV23 2QF",GVE,ScotRail,IV23 2QF,Garve,57.61342991,"1,083",-4.686869901
"Tulloch, Highland, PH31 4AR",TUL,ScotRail,PH31 4AR,Tulloch,56.88979995,"6,029",-4.683339897
"Main Street, Glengarnock, North Ayrshire, KA14 3AT",GLG,ScotRail,KA14 3AT,Glengarnock,55.73885994,"8,001",-4.676129903
"Station Road, Irvine, KA12 8NU",IRV,ScotRail,KA12 8NU,Irvine,55.61109,"8,401",-4.674379968
"Grenville Road, Lostwithiel, Cornwall, PL22 0EW",LOS,Great Western Railway,PL22 0EW,Lostwithiel,50.40721005,"85,101",-4.666199968
"Station Approach, Liskeard Road, Bodmin, Cornwall and Isles of Scilly, PL30 4BB",BOD,Great Western Railway,PL30 4BB,Bodmin Parkway,50.44718013,"85,011",-4.66049993
"St. Meddans Road, Troon, KA10 6JY",TRN,ScotRail,KA10 6JY,Troon,55.54279998,"8,519",-4.655219991
"Barassie, -, KA10 6SA",BSS,ScotRail,KA10 6SA,Barassie,55.55815998,"8,411",-4.652519959
"Station Road, Cardross, -, G82 5NL",CDR,ScotRail,G82 5NL,Cardross,55.96116988,"6,113",-4.65226989
"Raise Street, SALTCOATS, KA15 1AA",SLT,ScotRail,KA15 1AA,Saltcoats,55.7500799,"8,125",-4.63400997
"Holyhead Railway Station, Station Approach, London Road, Holyhead, Anglesey, LL65 2BT",HHD,Arriva Trains Wales,LL65 2BT,Holyhead,53.3082701,"40,001",-4.632509967
"Smith Street, Smith Street, Ayr, KA7 1TH",AYR,ScotRail,KA7 1TH,Ayr,55.46065993,"8,618",-4.625589992
"Newton-on-Ayr, South Ayrshire, KA8 9BP",NOA,ScotRail,KA8 9BP,Newton-on-Ayr,55.47815996,"8,605",-4.619779918
"Lochwinnoch, Renfrewshire, PA12 4JF",LHW,ScotRail,PA12 4JF,Lochwinnoch,55.78809988,"7,101",-4.619059982
"Crianlarich, -, FK20 8QN",CNR,ScotRail,FK20 8QN,Crianlarich,56.39191,"6,058",-4.617339908
"Whitland Railway Station, St Johns Street, Whitland, SA34 0AP",WTL,Arriva Trains Wales,SA34 0AP,Whitland,51.81843007,"80,303",-4.613869899
"Station Road, PRESTWICK, KA9 1AQ",PTW,ScotRail,KA9 1AQ,Prestwick Town,55.5012999,"8,523",-4.612909984
"Corrour, -, PH30 4AA",CRR,ScotRail,PH30 4AA,Corrour,56.79217992,"6,031",-4.601649941
"Station Road, DUMBARTON, West Dunbartonshire, G82 4ND",RTN,ScotRail,G82 4ND,Renton,55.97015995,"6,125",-4.585749993
"Langbank, Renfrewshire, PA14 6PD",LGB,ScotRail,PA14 6PD,Langbank,55.92219994,"7,130",-4.584749991
"Balloch Road, Alexandria, West Dunbartonshire, G83 8SS",BHC,ScotRail,G83 8SS,Balloch,56.00307997,"6,121",-4.584679906
"Ardlui, -, G83 8SW",AUI,ScotRail,G83 8SW,Ardlui,56.00194989,"6,059",-4.58271999
"West Bridgend, Dalreoch, Dumbarton, G82 4AD",DLR,ScotRail,G82 4AD,Dalreoch,55.94537997,"6,134",-4.578649897
"Rannoch, -, PH17 2QA",RAN,ScotRail,PH17 2QA,Rannoch,56.68550996,"6,035",-4.576529904
"200 Bank Street, Alexandria, Balloch, G83 0UL",ALX,ScotRail,G83 0UL,Alexandria,55.98531991,"6,123",-4.575059899
"Valley Railway Station, Valley, Anglesey, LL65 3EW",VAL,Arriva Trains Wales,LL65 3EW,Valley,53.28112006,"40,012",-4.563799992
"Howwood (Renfrewshire), Renfrewshire, PA9 1AZ",HOZ,ScotRail,PA9 1AZ,Howwood (Renfrewshire),55.81040998,"7,102",-4.561799988
"Dumbarton East, -, G82 2EP",DBE,ScotRail,G82 2EP,Dumbarton East,55.94241991,"6,137",-4.548059984
"Kilmaurs, East Ayrshire, KA3 2QX",KLM,ScotRail,KA3 2QX,Kilmaurs,55.64266996,"8,704",-4.532129902
"Dunlop, -, KA3 4BZ",DNL,ScotRail,KA3 4BZ,Dunlop,55.71263996,"8,701",-4.528149938
"Milliken Park, Renfrewshire, PA5 8PQ",MIN,ScotRail,PA5 8PQ,Milliken Park,55.8302299,"7,103",-4.523279871
"Stewarton, East Ayrshire, KA3 5BD",STT,ScotRail,KA3 5BD,Stewarton,55.68226998,"8,703",-4.516699957
"Rhosneigr Railway Station, Rhosneigr, Anglesey, LL64 5QZ",RHO,Arriva Trains Wales,LL64 5QZ,Rhosneigr,53.23419006,"40,013",-4.505839969
"Thorn Brae, Johnstone, PA5 8HE",JHN,ScotRail,PA5 8HE,Johnstone (Strathclyde),55.83448993,"7,105",-4.502979996
"Station Road, Bishopton, Renfrewshire, PA7 5AD",BPT,ScotRail,PA7 5AD,Bishopton (Strathclyde),55.90346988,"7,132",-4.500849913
"Hill Street, Kilmarnock, KA1 2AF",KMK,ScotRail,KA1 2AF,Kilmarnock,55.6121999,"8,712",-4.499089888
"Bowling, -, G60 5AH",BWG,ScotRail,G60 5AH,Bowling,55.93108992,"6,203",-4.486359976
"Lametton Mill, St Keyne, Liskeard, Cornwall, PL14 4SE",SKN,Great Western Railway,PL14 4SE,St Keyne Wishing Well Halt,50.42255014,"84,416",-4.475899907
"Ty Croes Railway Station, Ty Croes, Anglesey, LL63 5HX",TYC,Arriva Trains Wales,LL63 5HX,Ty Croes,53.22259009,"40,015",-4.473809911
"Station Road, Liskeard, Cornwall and Isles of Scilly, PL14 4DX",LSK,Great Western Railway,PL14 4DX,Liskeard,50.44670003,"84,411",-4.467459885
"Tarras Crossing, Sandplace, Looe, Cornwall, PL13 1PJ",SDP,Great Western Railway,PL13 1PJ,Sandplace,50.38528009,"84,418",-4.463879976
"Beauly, -, IV4 7EF",BEL,ScotRail,IV4 7EF,Beauly,57.48546989,"1,089",-4.463129907
"Muir of Ord, Highland, IV6 7ST",MOO,ScotRail,IV6 7ST,Muir of Ord,57.51488991,"1,094",-4.458669986
"Causeland, Liskeard, Cornwall and Isles of Scilly, PL14 4ST",CAU,Great Western Railway,PL14 4ST,Causeland,50.41260002,"84,417",-4.456509905
"Station Road, Looe, Cornwall, PL13 1HN",LOO,Great Western Railway,PL13 1HN,Looe,50.35845007,"84,421",-4.455319966
"Station Road, Kilpatrick, West Dunbartonshire, G60 5LX",KPT,ScotRail,G60 5LX,Kilpatrick,55.92454996,"6,205",-4.452819961
"Paisley St James, Renfrewshire, PA3 1RB",PYJ,ScotRail,PA3 1RB,Paisley St James,55.85310995,"7,136",-4.440239899
"Station Road, Conon Bridge, Dingwall, IV7 8AA",CBD,ScotRail,IV7 8AA,Conon Bridge,57.56165997,"1,101",-4.439659996
"Station Road, Dingwall, IV15 9PZ",DIN,ScotRail,IV15 9PZ,Dingwall,57.5981899,"1,091",-4.438229941
"Duntocher Road, Clydebank, West Dunbartonshire, G81 3QT",DMR,ScotRail,G81 3QT,Dalmuir,55.91180996,"6,211",-4.427409904
"Station Road, Neilston, G78 3EE",NEI,ScotRail,G78 3EE,Neilston,55.78349992,"7,237",-4.427279961
"Rail Station, County Square, PAISLEY, PA1 1BS",PYG,ScotRail,PA1 1BS,Paisley Gilmour Street,55.84712999,"7,140",-4.424279956
"Paisley Canal, Renfrewshire, PA2 6SZ",PCN,ScotRail,PA2 6SZ,Paisley Canal,55.8378499,"7,115",-4.420549924
"Pwllheli Railway Station, Station Square, Pwllheli, LL53 5HG",PWL,Arriva Trains Wales,LL53 5HG,Pwllheli,52.88787007,"64,511",-4.417369934
"Bodorgan Railway Station, Station Road, Bodorgan, Anglesey, LL62 5BL",BOR,Arriva Trains Wales,LL62 5BL,Bodorgan,53.20399011,"40,017",-4.414279937
"Station Approach, Lower Clicker Road, Menheniot, Cornwall, PL14 3PJ",MEN,Great Western Railway,PL14 3PJ,Menheniot,50.42478003,"84,401",-4.409639895
"Kilbowie Road, CLYDEBANK, G81 2JQ",SIN,ScotRail,G81 2JQ,Singer,55.90733995,"6,215",-4.405759877
"Chalmers Street, Clydebank, West Dunbartonshire, G81 1RT",CYK,ScotRail,G81 1RT,Clydebank,55.90112995,"6,345",-4.404719924
"Station Road, Lairg, Highland, IV27 4EX",LRG,ScotRail,IV27 4EX,Lairg,57.96591994,"1,031",-4.400939988
"Culrain, -, IV27 4ET",CUA,ScotRail,IV27 4ET,Culrain,57.92851,"1,037",-4.400759867
"Invershin, Highland, IV27 4ET",INH,ScotRail,IV27 4ET,Invershin,57.92851,"1,035",-4.400759867
"Carlibar Road, Barrhead, East Renfrewshire, G78 1AA",BRR,ScotRail,G78 1AA,Barrhead,55.80400992,"7,224",-4.396269949
"Yoker, Glasgow City, G81 1AD",YOK,ScotRail,G81 1AD,Yoker,55.89555999,"6,347",-4.38597991
"Abererch Railway Station, Abererch, Pwllheli, LL53 6PJ",ABH,Arriva Trains Wales,LL53 6PJ,Abererch,52.89833014,"64,506",-4.375369991
"Queen Elizabeth Avenue, Hillington, Glasgow, G52 4NQ",HLW,ScotRail,G52 4NQ,Hillington West,55.85690993,"7,150",-4.37258992
"Ferryside Railway Station, Eva Terrace, Ferryside, SA17 5TD",FYS,Arriva Trains Wales,SA17 5TD,Ferryside,51.76923009,"80,407",-4.367919881
"Glasgow, -, G52 3TX",CKT,ScotRail,G52 3TX,Crookston,55.84158989,"7,118",-4.36634993
"Kinellar Drive, Garscadden, G14 0EY",GRS,ScotRail,G14 0EY,Garscadden,55.88650994,"6,350",-4.362869967
"Nitshill, Glasgow City, G53 7NX",NIT,ScotRail,G53 7NX,Nitshill,55.81131999,"7,225",-4.359759926
"Chirnside Road, Hillington, Glasgow, G52 2LL",HLE,ScotRail,G52 2LL,Hillington East,55.85363,"7,152",-4.35295994
"Ardgay, -, IV24 3AQ",ARD,ScotRail,IV24 3AQ,Ardgay,57.89031999,"1,041",-4.351789908
"Mosspark, Glasgow City, G52 3ET",MPK,ScotRail,G52 3ET,Mosspark,55.84171997,"7,119",-4.346559873
"-, Glasgow City, G53 7US",PTL,ScotRail,G53 7US,Priesthill & Darnley,55.81102997,"7,226",-4.343309935
"Berryknowes Road, Cardonald, Glasgow City, G52 2DE",CDO,ScotRail,G52 2DE,Cardonald,55.84970989,"7,154",-4.341719941
"Penychain Railway Station, nr former Butlins Camp, Chwilog, Pwllheli, LL53 6HJ",PNC,Arriva Trains Wales,LL53 6HJ,Penychain,52.90541005,"64,504",-4.339559996
"Maxwell Avenue, Bearsden, G61 1PA",WES,ScotRail,G61 1PA,Westerton,55.90793989,"6,221",-4.336569944
"281 Corkerhill Road, Corkerhill, Glasgow, G52 1QR",CKH,ScotRail,G52 1QR,Corkerhill,55.83886,"7,124",-4.334799966
"Patterton, East Renfrewshire, G77 6NR",PTT,ScotRail,G77 6NR,Patterton,55.7914199,"7,561",-4.332959902
"Station Road, Bearsden, East Dunbartonshire, G61 4AN",BRN,ScotRail,G61 4AN,Bearsden,55.91677997,"6,305",-4.332159928
"587 Anniesland Road, Knightswood, GLASGOW, G13 1QG",SCH,ScotRail,G13 1QG,Scotstounhill,55.88410988,"6,351",-4.329509936
"Jordanhill, -, G13 1QL",JOR,ScotRail,G13 1QL,Jordanhill,55.88418992,"6,352",-4.328869902
"Kennishead, Glasgow City, G46 8HP",KNS,ScotRail,G46 8HP,Kennishead,55.81107988,"7,227",-4.324429889
"Great Western Road, Anniesland, G12 0AY",ANL,ScotRail,G12 0AY,Anniesland,55.88891995,"6,222",-4.321489878
"Hillfoot, Bearsden, G61 3PG",HLF,ScotRail,G61 3PG,Hillfoot,55.92237993,"6,303",-4.318559957
"Station Road, Milngavie, G62 8PG",MLN,ScotRail,G62 8PG,Milngavie,55.94191991,"6,301",-4.316629901
"Cleveden Road, GLASGOW, G20 0TB",KVD,ScotRail,G20 0TB,Kelvindale,55.89376997,"6,230",-4.310539898
"Nut Tree Hill, St Germans, Cornwall., PL12 5LS",SGM,Great Western Railway,PL12 5LS,St Germans,50.39451013,"84,397",-4.310269922
"Kidwelly Railway Station, Quay Road, Kidwelly, SA17 4UH",KWL,Arriva Trains Wales,SA17 4UH,Kidwelly,51.73623003,"79,019",-4.309079982
"Merkland Court, PARTICK, G11 6BU",PTK,ScotRail,G11 6BU,Partick,55.87047991,"6,359",-4.308849957
"Thornliebank, East Renfrewshire, G46 7DA",THB,ScotRail,G46 7DA,Thornliebank,55.80735994,"7,619",-4.308469946
"Queensborough Gardens, Hyndland, Glasgow, G12 9PP",HYN,ScotRail,G12 9PP,Hyndland,55.87825999,"6,354",-4.308149929
"Carmarthen Railway Station, Station Road, Carmarthen, SA31 2BE",CMN,Arriva Trains Wales,SA31 2BE,Carmarthen,51.85329011,"80,419",-4.306199966
"Dumbreck, -, G41 4HE",DUM,ScotRail,G41 4HE,Dumbreck,55.8414699,"7,127",-4.29922995
"Coustenholme Road, Pollokshaws, Glasgow City, G43 1NE",PWE,ScotRail,G43 1NE,Pollokshaws East,55.8256099,"7,583",-4.297929975
"Pollokshaws West, Glasgow City, G43 1NE",PWW,ScotRail,G43 1NE,Pollokshaws West,55.8256099,"7,228",-4.297929975
"Auchinleck, -, KA18 2BH",AUK,ScotRail,KA18 2BH,Auchinleck,55.47159996,"8,825",-4.29756987
"Summerston, Glasgow City, G23 5AT",SUM,ScotRail,G23 5AT,Summerston,55.8991999,"6,236",-4.294019959
"Ayr Road, Giffnock, Glasgow, Renfrewshire, G46 6JB",WCR,ScotRail,G46 6JB,Whitecraigs,55.8082199,"7,563",-4.29389997
"Fenwick Road, Giffnock, East Renfrewshire, G46 6JF",GFN,ScotRail,G46 6JF,Giffnock,55.80411,"7,233",-4.293859882
"Lamphey Railway Station, Station Road, Lamphey, SA17 5NR",LAM,Arriva Trains Wales,SA17 5NR,Lamphey,51.78210003,"80,205",-4.293069998
"Cathcart Road, Mount Florida, G41 1RR",MFL,ScotRail,G41 1RR,Mount Florida,55.84897987,"7,236",-4.290689983
"Shawlands, Glasgow City, G41 3RG",SHL,ScotRail,G41 3RG,Shawlands,55.82850996,"7,585",-4.289279972
"Maxwell Park, Glasgow City, G41 4DT",MAX,ScotRail,G41 4DT,Maxwell Park,55.83589994,"7,587",-4.288679889
"Eastwood Mains Road, Williamwood, G76 7HQ",WLM,ScotRail,G76 7HQ,Williamwood,55.7934199,"7,565",-4.285319915
"Gilshochill, -, G23 5LF",GSC,ScotRail,G23 5LF,Gilshochill,55.89772989,"6,239",-4.283029892
"Glasgow, Glasgow City, G41 3TW",CMY,ScotRail,G41 3TW,Crossmyloof,55.83140989,"7,229",-4.282919992
"Minerva Street, Glasgow, G3 8LD",EXG,ScotRail,G3 8LD,Exhibition Centre (Glasgow),55.86334995,"7,275",-4.282019936
"Pollokshields West, Glasgow City, G41 5HT",PLW,ScotRail,G41 5HT,Pollokshields West,55.84466993,"7,589",-4.276809945
"Langside, Glasgow City, G43 2JH",LGS,ScotRail,G43 2JH,Langside,55.81952999,"7,581",-4.275949976
"Albert Drive, POLLOKSHIELDS, G41 2NE",PLE,ScotRail,G41 2NE,Pollokshields East,55.84150999,"7,577",-4.270749939
"North Street, Andeston, Glasgow City, G3 8RR",AND,ScotRail,G3 8RR,Anderston,55.860158,"7,253",-4.268663
"492 Victoria Road, Queens Park, GLASGOW, G42 8PQ",QPK,ScotRail,G42 8PQ,Queens Park (Glasgow),55.8348799,"7,575",-4.265799971
"Elmbank Crescent, Glasgow, Glasgow City, G2 3HW",CHC,ScotRail,G2 3HW,Charing Cross (Glasgow),55.86559989,"6,365",-4.265539948
"Busby Road, Clarkston, East Renfrewshire, G44 3BP",CKS,ScotRail,G44 3BP,Clarkston,55.81477991,"7,615",-4.265529995
"Holmlea Road, Glasgow, Glasgow City, G44 4ED",CCT,ScotRail,G44 4ED,Cathcart,55.81729996,"7,238",-4.260489898
"Busby, -, G76 8JB",BUS,ScotRail,G76 8JB,Busby,55.77801996,"7,613",-4.260279917
"Gordon Street, Glasgow, G1 3SL",GLC,Network Rail,G1 3SL,Glasgow Central,55.85970991,"7,257",-4.258959898
"35 Argyle Street, Glasgow, Glasgow City, G2 8DL",AGS,ScotRail,G2 8DL,Argyle Street,55.85838989,"7,259",-4.258329954
"-, Glasgow City, G22 6LN",PPK,ScotRail,G22 6LN,Possilpark & Parkhouse,55.88978987,"6,242",-4.258029981
"682 Cathcart Road, Glasgow, Glasgow City, G42 8ES",COI,ScotRail,G42 8ES,Crosshill,55.83335999,"7,573",-4.255899897
"Ashfield, -, G22 6LR",ASF,ScotRail,G22 6LR,Ashfield,55.89133992,"6,245",-4.253559969
"Menock Road, Glasgow, G44 5UT",KGP,ScotRail,G44 5UT,Kings Park,55.81922988,"7,235",-4.252999974
"Alness, Highland, IV17 0SE",ASS,ScotRail,IV17 0SE,Alness,57.69527994,"1,058",-4.25223995
"Thorntonhall, South Lanarkshire, G74 5AB",THT,ScotRail,G74 5AB,Thorntonhall,55.76731991,"7,611",-4.251429886
"Rail Station, North Hanover Street, Glasgow, G1 2AF",GLQ,ScotRail,G1 2AF,Glasgow Queen Street,55.86208993,"6,401",-4.250649956
"-, Station Road, Burry Port, SA16 0LW",PBY,Arriva Trains Wales,SA16 0LW,Pembrey & Burry Port,51.68420007,"79,031",-4.249909976
"Dalwhinnie, -, PH19 1AD",DLW,ScotRail,PH19 1AD,Dalwhinnie,56.93370991,"1,154",-4.246629904
"High Street, Glasgow, G1 1PZ",HST,ScotRail,G1 1PZ,High Street (Glasgow),55.85895998,"6,600",-4.240689888
"Criccieth Railway Station, Parciau Terrace, Criccieth, LL52 0RW",CCC,Arriva Trains Wales,LL52 0RW,Criccieth,52.91862006,"64,503",-4.237359911
"Victoria Street, RUTHERGLEN, G73 1DB",RUT,ScotRail,G73 1DB,Rutherglen,55.83753998,"7,280",-4.229899984
"1 Bridgeton Cross, Bridgeton, Glasgow City, G40 1BN",BDG,ScotRail,G40 1BN,Bridgeton,55.84883997,"7,269",-4.22636998
"Arnold Ave, Bishopbriggs Cross, Glasgow, G64 1PE",BBG,ScotRail,G64 1PE,Bishopbriggs,55.9037899,"6,443",-4.223529915
"Barnhill, -, G21 4NB",BNL,ScotRail,G21 4NB,Barnhill,55.87796997,"6,523",-4.222339975
"Bellgrove, -, G31 1SG",BLG,ScotRail,G31 1SG,Bellgrove,55.857164,"6,701",-4.2221
"Hairmyres, East Kilbride, G75 8SW",HMY,ScotRail,G75 8SW,Hairmyres,55.7551699,"7,609",-4.221829884
"Onslow Drive, DRUMRY, G31 2LY",DMY,ScotRail,G31 2LY,Drumry,55.86173991,"6,217",-4.220709893
"Swanston Street, Dalmarnock, Glasgow City, G40 4HG",DAK,ScotRail,G40 4HG,Dalmarnock,55.83994999,"7,272",-4.218739887
"Station Square, Academy Street, Inverness, Highland, IV2 3PY",INV,ScotRail,IV2 3PY,Inverness,57.48087989,"1,100",-4.217159982
"Alexandra Parade, -, G31 3JN",AXP,ScotRail,G31 3JN,Alexandra Parade,55.86713998,"6,525",-4.211339954
"Commercial Road, Calstock, Cornwall and Isles of Scilly, PL18 9QY",CSK,Great Western Railway,PL18 9QY,Calstock,50.49763004,"84,209",-4.210119881
"Duke Street, -, G31 1LL",DST,ScotRail,G31 1LL,Duke Street,55.85848998,"6,527",-4.210059887
"Albert Road, Saltash, Cornwall, PL12 4EB",STS,Great Western Railway,PL12 4EB,Saltash,50.40757001,"84,301",-4.208939895
"Llanfair P.G. Railway Station, Holyhead Road, Llanfair PG, Anglesey, LL61 5UJ",LPG,Arriva Trains Wales,LL61 5UJ,Llanfairpwll,53.22130007,"40,030",-4.208729914
"Burnside, South Lanarkshire, G73 3SA",BUI,ScotRail,G73 3SA,Burnside (Strathclyde),55.81812993,"7,553",-4.202059871
"Station Road, Bere Alston, Devon, PL20 7EP",BAS,Great Western Railway,PL20 7EP,Bere Alston,50.48211011,"84,207",-4.197409876
"Wolseley Road, St Budeaux, Plymouth, PL5 1JJ",SBF,Great Western Railway,PL5 1JJ,St Budeaux Ferry Road,50.40189002,"84,295",-4.188639884
"Wolseley Road, St Budeaux, Plymouth, Plymouth, PL5 1JJ",SBV,Great Western Railway,PL5 1JJ,St Budeaux Victoria Road,50.40189002,"84,204",-4.188639884
"New Cumnock, East Ayrshire, KA18 4DG",NCK,ScotRail,KA18 4DG,New Cumnock,55.40344998,"8,834",-4.184119968
"Carntyne, -, G32 6AW",CAY,ScotRail,G32 6AW,Carntyne,55.85817991,"6,706",-4.180439978
"Torrance Road, West Mains, East Kilbride, G74 1AR",EKL,ScotRail,G74 1AR,East Kilbride,55.76541999,"7,231",-4.180009925
"Admiralty Street, Keyham, Plymouth, PL2 2BP",KEY,Great Western Railway,PL2 2BP,Keyham,50.39104012,"84,201",-4.179879982
"Station Road, Bere Ferrers, Devon, PL20 7JS",BFE,Great Western Railway,PL20 7JS,Bere Ferrers,50.45098011,"84,205",-4.177209947
"Paisley Street, Devonport, Plymouth, PL2 1RX",DOC,Great Western Railway,PL2 1RX,Devonport Dockyard,50.38159001,"84,200",-4.17705996
"Station Road, Invergordon, Highland, IV18 0RY",IGD,ScotRail,IV18 0RY,Invergordon,57.68853,"1,053",-4.174579999
"Portland Road, Devonport, Plymouth, PL1 4QN",DPT,Great Western Railway,PL1 4QN,Devonport (Devon),50.37802005,"84,199",-4.170729978
"Kirkhill, South Lanarkshire, G72 8NL",KKH,ScotRail,G72 8NL,Kirkhill,55.81535995,"7,551",-4.168869871
"Main Street, Cambuslang, South Lanarkshire, G72 7EL",CBL,ScotRail,G72 7EL,Cambuslang,55.81909994,"7,411",-4.168489996
"Llanelli Railway Station, Great Western Crescent, Llanelli, SA15 2RN",LLE,Arriva Trains Wales,SA15 2RN,Llanelli,51.67403002,"79,040",-4.161249867
"Balgair Terrace, SHETTLESTON, G32 0PF",SLS,ScotRail,G32 0PF,Shettleston,55.85418999,"6,707",-4.160639967
"Carmyle, -, G32 8YS",CML,ScotRail,G32 8YS,Carmyle,55.83725991,"7,294",-4.153109956
"North Road, Plymouth, PL4 6AB",PLY,Great Western Railway,PL4 6AB,Plymouth,50.3775401,"84,139",-4.142809963
"Bangor Railway Station, Holyhead Road, Bangor, LL57 1LZ",BNG,Arriva Trains Wales,LL57 1LZ,Bangor (Gwynedd),53.22301005,"40,036",-4.134799994
"Stepps, North Lanarkshire, G33 6AT",SPS,ScotRail,G33 6AT,Stepps,55.88819988,"6,503",-4.134619874
"Porthmadog Railway Station, High Street, Porthmadog, LL49 9HT",PTM,Arriva Trains Wales,LL49 9HT,Porthmadog,52.93211013,"64,501",-4.134259906
"Station Road, Newton, CAMBUSLANG, G72 7TD",NTN,ScotRail,G72 7TD,Newton (Lanark),55.81875988,"7,416",-4.133739998
"Mount Vernon, Glasgow City, G69 7DB",MTV,ScotRail,G69 7DB,Mount Vernon,55.84277996,"7,295",-4.127119996
"Llandanwg Railway Station, Llandanwg, Harlech, Gwynedd, LL46 2SB",LDN,Arriva Trains Wales,LL46 2SB,Llandanwg,52.83895001,"64,420",-4.121729885
"Newtonmore, Highland, PH20 1AL",NWR,ScotRail,PH20 1AL,Newtonmore,57.06025992,"1,151",-4.118719926
"Pensarn Railway Station, off A496, near Llanbedre, LL45 2HP",PES,Arriva Trains Wales,LL45 2HP,Pensarn (Gwynedd),52.8303101,"64,419",-4.110449934
"Harlech Railway Station, Ffordd Morfa, Harlech, LL46 2UL",HRL,Arriva Trains Wales,LL46 2UL,Harlech,52.86256009,"64,422",-4.109519881
"Llanbedr Railway Station, Llanbedr, LL45 2LR",LBR,Arriva Trains Wales,LL45 2LR,Llanbedr,52.81994002,"64,418",-4.108969975
"Baillieston, -, G69 7RN",BIO,ScotRail,G69 7RN,Baillieston,55.84629988,"7,296",-4.107409978
"Easterhouse Road, Glasgow, G69 6BL",EST,ScotRail,G69 6BL,Easterhouse,55.85892998,"6,712",-4.106899887
"Talybont Railway Station, Talybont, LL43 2AQ",TLB,Arriva Trains Wales,LL43 2AQ,Talybont,52.77237012,"64,416",-4.100069904
"Bynea Railway Station, Heol y Bwlch, Bynea, Llanelli, SA14 9TL",BYE,Arriva Trains Wales,SA14 9TL,Bynea,51.67274013,"79,054",-4.099379965
"Tywyn Railway Station, Station Road, Tywyn, LL36 9EY",TYW,Arriva Trains Wales,LL36 9EY,Tywyn,52.58388012,"64,411",-4.088809997
"Minffordd Railway Station, Minffordd, Penrhyndeudraeth, LL48 6HG",MFF,Arriva Trains Wales,LL48 6HG,Minffordd,52.92501003,"64,428",-4.08818987
"Llwyngwril Railway Station, Station Road, Llwyngwril, LL37 2JS",LLW,Arriva Trains Wales,LL37 2JS,Llwyngwril,52.66634006,"64,412",-4.085899983
"Station Road, Blantyre, South Lanarkshire, G72 9BB",BLT,ScotRail,G72 9BB,Blantyre,55.79764994,"7,486",-4.085449887
"Station Road, Uddingston, G71 7LR",UDD,ScotRail,G71 7LR,Uddingston,55.82083992,"7,419",-4.083029921
"Aberystwyth Railway Station, Station Yard, Alexandra Road, Aberystwyth, SY23 1LH",AYW,Arriva Trains Wales,SY23 1LH,Aberystwyth,52.41389003,"64,607",-4.082059916
"Llangennech Railway Station, Station Road, Llangennech, Llanelli, SA14 8UY",LLH,Arriva Trains Wales,SA14 8UY,Llangennech,51.69147006,"79,056",-4.079559911
"Tygwyn Railway Station, off B4573, Harlech, LL47 6TF",TYG,Arriva Trains Wales,LL47 6TF,Tygwyn,52.89394003,"64,424",-4.07827998
"Llanaber Railway Station, off A496, Llanaber, Harlech, LL42 1AZ",LLA,Arriva Trains Wales,LL42 1AZ,Llanaber,52.74193006,"64,415",-4.075849923
"Bargeddie, Glasgow City, G69 7TS",BGI,ScotRail,G69 7TS,Bargeddie,55.84934993,"7,297",-4.072699931
"Talsarnau Railway Station, Station Road, Talsarnau, LL47 6UA",TAL,Arriva Trains Wales,LL47 6UA,Talsarnau,52.90468002,"64,425",-4.067819911
"Penrhyndeudraeth Railway Station, Cambrian View, Penrhyndeudraeth, LL48 6LN",PRH,Arriva Trains Wales,LL48 6LN,Penrhyndeudraeth,52.92937001,"64,427",-4.065599972
"Station Road, Barnstaple, Devon, EX31 2AU",BNP,Great Western Railway,EX31 2AU,Barnstaple,51.07438012,"83,222",-4.063699914
"Barmouth Railway Station, Station Approach, Barmouth, LL42 1LS",BRM,Arriva Trains Wales,LL42 1LS,Barmouth,52.72204005,"64,414",-4.056089864
"Kingussie, Highland, PH21 1EN",KIN,ScotRail,PH21 1EN,Kingussie,57.07819996,"1,147",-4.053759889
"Aberdovey Railway Station, Aberdovey, LL35 0NR",AVY,Arriva Trains Wales,LL35 0NR,Aberdovey,52.54454013,"64,409",-4.051979957
"Kirkwood, North Lanarkshire, ML5 5RS",KWD,ScotRail,ML5 5RS,Kirkwood,55.85163,"7,298",-4.051889965
"Station Road, Tain, IV19 1JA",TAI,ScotRail,IV19 1JA,Tain,57.81380989,"1,044",-4.051719935
"Llandecwyn Railway Station, Llandecwyn, Talsarnau, LL47 6YL",LLC,Arriva Trains Wales,LL47 6YL,Llandecwyn,52.9186101,"64,426",-4.051079901
"Borth Railway Station, Cambrian Terrace, Borth, SY24 5HT",BRH,Arriva Trains Wales,SY24 5HT,Borth,52.49094008,"64,604",-4.049909868
"Fairbourne Railway Station, Station Road, Fairbourne, LL38 2AQ",FRB,Arriva Trains Wales,LL38 2AQ,Fairbourne,52.69600005,"64,413",-4.049589988
"Pontarddulais Railway Station, Loughar Road, Pontarddulais, SA4 8TH",PTD,Arriva Trains Wales,SA4 8TH,Pontarddulais,51.71578003,"79,057",-4.044309912
"Constarry Road, Croy, North Lanarkshire, G65 9HT",CRO,ScotRail,G65 9HT,Croy,55.95926996,"6,457",-4.043099929
"Station Road, New Cross, Hamilton, ML3 6PB",HNC,ScotRail,ML3 6PB,Hamilton Central,55.77373988,"7,479",-4.041799954
"Blair Road, Coatbridge, North Lanarkshire, ML5 1NP",BAI,ScotRail,ML5 1NP,Blairhill,55.86571988,"6,714",-4.040679963
"Gowerton Railway Station, Station Road, Gowerton, SA4 3AJ",GWN,Arriva Trains Wales,SA4 3AJ,Gowerton,51.64814,"79,325",-4.036139867
"Penhelig Railway Station, Terrace Road, Aberdovery, LL35 0LU",PHG,Arriva Trains Wales,LL35 0LU,Penhelig,52.54586001,"64,407",-4.035619959
"Coatbridge, -, ML5 1RL",CBC,ScotRail,ML5 1RL,Coatbridge Central,55.86423992,"7,312",-4.034599913
"Morfa Mawddach Railway Station, Morfa Mawddach, Gwynedd, LL39 1BQ",MFA,Arriva Trains Wales,LL39 1BQ,Morfa Mawddach,52.70576009,"64,404",-4.029029954
"Sunnyside Road, Coatbridge, North Lanarkshire, ML5 2DF",CBS,ScotRail,ML5 2DF,Coatbridge Sunnyside,55.86891991,"7,331",-4.028319972
"Whifflet, North Lanarkshire, ML5 4AS",WFF,ScotRail,ML5 4AS,Whifflet,55.85443993,"7,342",-4.024529946
"Station Lane, Chapelton, Barnstaple, Devon, EX37 9DZ",CPN,Great Western Railway,EX37 9DZ,Chapelton (Devon),51.01413007,"83,225",-4.024159888
"Hamilton Road, Main Street, Bellshill, North Lanarkshire, ML4 1RJ",BLH,ScotRail,ML4 1RJ,Bellshill,55.81822988,"7,429",-4.022569893
"Riddell Street, Coatdyke, ML5 3PZ",COA,ScotRail,ML5 3PZ,Coatdyke,55.86458993,"7,329",-4.006549955
"Valleyfield Road, Ferniegar, ML3 7UD",CTE,ScotRail,ML3 7UD,Chatelherault,55.76556997,"7,490",-4.003619898
"Pantyffynnon Railway Station, Pantyffynnon Road, Pantyffynnon, SA18 3HW",PTF,Arriva Trains Wales,SA18 3HW,Pantyffynnon,51.77896013,"79,060",-3.997849911
"Station Road, Okehampton, EX20 1EJ",OKE,Great Western Railway,EX20 1EJ,Okehampton,50.73252005,"83,311",-3.996299867
"Kirkconnel, -, DG4 6NL",KRK,ScotRail,DG4 6NL,Kirkconnel,55.3874299,"8,841",-3.995789913
"Ammanford Railway Station, Ffordd-yr-Orsaf, Ammanford, SA18 2DD",AMF,Arriva Trains Wales,SA18 2DD,Ammanford,51.79590003,"79,064",-3.995739872
"South Carbrain Road, Greenfaulds, Cumbernauld, G67 2XJ",GRL,ScotRail,G67 2XJ,Greenfaulds,55.93570992,"7,303",-3.994869949
"Airbles, -, ML1 2SX",AIR,ScotRail,ML1 2SX,Airbles,55.7822099,"7,476",-3.993489936
"Ffairfach Railway Station, Heol Cennen, Fairfach, Llandeilo, SA19 6UL",FFA,Arriva Trains Wales,SA19 6UL,Ffairfach,51.87183009,"79,073",-3.992819904
"Golspie, -, KW10 6SZ",GOL,ScotRail,KW10 6SZ,Golspie,57.97161998,"1,024",-3.992029884
"Llandeilo Railway Station, Station Road, Llandeilo, SA19 6ND",LLL,Arriva Trains Wales,SA19 6ND,Llandeilo,51.88614005,"79,074",-3.98912996
"Fearn, -, IV20 1RS",FRN,ScotRail,IV20 1RS,Fearn,57.78979989,"1,047",-3.985389975
"Llanfairfechan Railway Station, West Shore Road, Llanfairfechan, LL33 0BP",LLF,Arriva Trains Wales,LL33 0BP,Llanfairfechan,53.25660011,"40,037",-3.984519916
"Station Approach, Umberleigh, Devon, EX37 9AB",UMB,Great Western Railway,EX37 9AB,Umberleigh,50.99662008,"83,226",-3.983019913
"Broomknoll Street, Airdrie, North Lanarkshire, ML6 9EX",ADR,ScotRail,ML6 9EX,Airdrie,55.863433,"7,327",-3.980312
"Fyne Crescent, Larkhall, ML9 2UW",MEY,ScotRail,ML9 2UW,Merryton,55.74944995,"7,494",-3.978879873
"Glencryan Road, South Carbrain, Cumbernauld, G67 2UH",CUB,ScotRail,G67 2UH,Cumbernauld,55.94600991,"7,301",-3.974769966
"Caledonian Road, Larkhall, -, ML9 1DP",LRH,ScotRail,ML9 1DP,Larkhall,55.73921991,"7,496",-3.974389954
"Holytown, North Lanarkshire, ML1 4HD",HLY,ScotRail,ML1 4HD,Holytown,55.81277991,"7,397",-3.972229874
"Station Road, Dunblane, FK15 9ET",DBL,ScotRail,FK15 9ET,Dunblane,56.18627994,"3,161",-3.965559967
"Portsmouth Arms, Umberleigh, Devon, EX37 9NB",PMA,Great Western Railway,EX37 9NB,Portsmouth Arms,50.95584008,"83,227",-3.961519872
"Carfin, South Lanarkshire, ML1 5AU",CRF,ScotRail,ML1 5AU,Carfin,55.81126,"7,432",-3.959559956
"Shieldmuir, North Lanarkshire, ML2 7TF",SDM,ScotRail,ML2 7TF,Shieldmuir,55.77718998,"7,906",-3.955519997
"Bridge of Allan, -, FK9 4PH",BEA,ScotRail,FK9 4PH,Bridge of Allan,56.16051987,"3,165",-3.95320993
"Grant Court, Airdrie, ML6 7BL",DRU,ScotRail,ML6 7BL,Drumgelloch,55.86799995,"7,323",-3.949889907
"Dunrobin, -, KW10 6SF",DNO,ScotRail,KW10 6SF,Dunrobin Castle,57.98537989,"1,023",-3.948089931
"Kinbrace, Highland, KW11 6UB",KBC,ScotRail,KW11 6UB,Kinbrace,58.25775988,"1,013",-3.942079966
"Swansea High Street Railway Station, High Street, SA1 1NU",SWA,Arriva Trains Wales,SA1 1NU,Swansea,51.62498002,"79,304",-3.940759947
"Blaenau Ffestiniog Railway Station, Church Street, Blaenau Ffestiniog, LL41 3HE",BFF,Arriva Trains Wales,LL41 3HE,Blaenau Ffestiniog,52.99504003,"40,066",-3.93692997
"Goosecroft Road, -, FK8 1PF",STG,ScotRail,FK8 1PF,Stirling,56.11971995,"3,401",-3.935319932
"Central Station, Station Road, Wishaw, North Lanarkshire, ML2 0EX",WSH,ScotRail,ML2 0EX,Wishaw,55.77203999,"7,945",-3.926529896
"Sanquhar, -, DG4 6DQ",SQH,ScotRail,DG4 6DQ,Sanquhar,55.36794991,"8,845",-3.926019941
"Penmaenmawr Railway Station, Station Road, Penmaenmawr, LL34 6AT",PMW,Arriva Trains Wales,LL34 6AT,Penmaenmawr,53.27045001,"40,042",-3.923599975
"Roman Bridge Railway Station, Roman Bridge, LL25 0JE",RMB,Arriva Trains Wales,LL25 0JE,Roman Bridge,53.04513011,"40,064",-3.913079911
"Cleland, -, ML1 5RR",CEA,ScotRail,ML1 5RR,Cleland,55.80388993,"7,430",-3.91104991
"South Molton Road, Kings Nympton, Eggesford, Devon, EX37 9EU",KGN,Great Western Railway,EX37 9EU,Kings Nympton,50.93789008,"83,231",-3.905739973
"Rutt Lane, Ivybridge, Devon, PL21 0DQ",IVY,Great Western Railway,PL21 0DQ,Ivybridge,50.3943701,"84,067",-3.903409999
"Forsinard, Highland, KW13 6YT",FRS,ScotRail,KW13 6YT,Forsinard,58.45065989,"1,012",-3.893219906
"Llangadog Railway Station, Station Road, Llangadog, SA19 9LU",LLG,Arriva Trains Wales,SA19 9LU,Llangadog,51.94078005,"79,075",-3.892929886
"Dovey Junction Railway Station, off A487, near Derwentlas, Powys, SY20 8PZ",DVY,Arriva Trains Wales,SY20 8PZ,Dovey Junction,52.57190001,"64,401",-3.891119957
"Dolwyddelan Railway Station, Station Approach, Dolwyddelan, LL25 0TJ",DWD,Arriva Trains Wales,LL25 0TJ,Dolwyddelan,53.05099009,"40,063",-3.884989866
"Llansamlet Railway Station, Frederick Place, Bethel Road, Llansamlet, SA7 9RY",LAS,Arriva Trains Wales,SA7 9RY,Llansamlet,51.65990005,"79,324",-3.884369876
"Eggesford Station, Eggesford, Chulmleigh, Devon, EX18 7JZ",EGG,Great Western Railway,EX18 7JZ,Eggesford,50.89071001,"83,232",-3.876249871
"Llanwrda Railway Station, Station Terrace, Llanwrda, SA19 8EH",LNR,Arriva Trains Wales,SA19 8EH,Llanwrda,51.96535004,"79,076",-3.873199961
"Cawdor Road, Nairn, IV12 4QS",NRN,ScotRail,IV12 4QS,Nairn,57.58128,"1,125",-3.871649917
"Pont-y-Pant Railway Station, off A470, Pont-y-Pant, nr Betws-y-Coed, LL25 0DQ",PYP,Arriva Trains Wales,LL25 0DQ,Pont-y-Pant,53.06480005,"40,062",-3.864939923
"Machynlleth Railway Station, Heol y Doll, Machynlleth, SY20 8BL",MCN,Arriva Trains Wales,SY20 8BL,Machynlleth,52.59508004,"64,317",-3.854459947
"Blair Atholl, -, PH18 5SL",BLA,ScotRail,PH18 5SL,Blair Atholl,56.76416991,"3,101",-3.849779954
"Skewen Railway Station, Station Road, Skewen, Neath, SA10 6HF",SKE,Arriva Trains Wales,SA10 6HF,Skewen,51.6613001,"79,408",-3.846109917
"Station Square, Brora, KW9 6PY",BRA,ScotRail,KW9 6PY,Brora,58.01326991,"1,021",-3.846059876
"Station Road, Carluke, South Lanarkshire, ML8 5AA",CLU,ScotRail,ML8 5AA,Carluke,55.73294992,"7,955",-3.84227994
"Deganwy Railway Station, Station Road, Deganwy, Conwy, LL31 9EJ",DGY,Arriva Trains Wales,LL31 9EJ,Deganwy,53.29488011,"40,047",-3.833209975
"Foundry Loan, Larbert, FK5 4AN",LBT,ScotRail,FK5 4AN,Larbert,56.02152996,"5,009",-3.831629934
"Kildonan Lodge, Kildonan Estate, Helmsdale, Sutherland, KW8 6HY",KIL,ScotRail,KW8 6HY,Kildonan,58.15531,"1,015",-3.830529986
"8-88 Glasgow Road, (Mariner Leisure Centre), Falkirk, FK1 4JW",CMO,ScotRail,FK1 4JW,Camelon,56.00621987,"5,037",-3.829499987
"Grampian Road, Aviemore, Highland, PH22 1PD",AVM,ScotRail,PH22 1PD,Aviemore,57.18854991,"1,144",-3.829399905
"Conwy Railway Station, Rosemary Lane, Conwy, LL32 8LD",CNW,Arriva Trains Wales,LL32 8LD,Conwy,53.28035009,"40,045",-3.827599929
"Llandudno Railway Station, Augusta Street, Llandudno, LL30 2AF",LLD,Arriva Trains Wales,LL30 2AF,Llandudno,53.32080012,"40,046",-3.826799954
"Briton Ferry Railway Station, Shelone Road, Briton Ferry, Neath, SA11 2NE",BNF,Arriva Trains Wales,SA11 2NE,Briton Ferry,51.63777006,"79,600",-3.821559966
"Dolgarrog Railway Station, off Llanwrst Road, Dolgarrog, LL26 0YR",DLG,Arriva Trains Wales,LL26 0YR,Dolgarrog,53.18502007,"40,058",-3.82020995
"Tal Y Cafn Railway Station, Tal Y Cafn, LL28 5RR",TLC,Arriva Trains Wales,LL28 5RR,Tal-y-Cafn,53.22828004,"40,057",-3.818309892
"Station Drive, Lapford, Crediton, Devon, EX17 6QU",LAP,Great Western Railway,EX17 6QU,Lapford,50.86077009,"83,235",-3.815419922
"Carrbridge, -, PH23 3AJ",CAG,ScotRail,PH23 3AJ,Carrbridge,57.27809998,"1,138",-3.810759973
"Llandudno Junction Railway Station, Conwy Road, Llandudno Junction, LL31 9NB",LLJ,Arriva Trains Wales,LL31 9NB,Llandudno Junction,53.28423011,"40,050",-3.808869868
"Seaway Parade, Baglan, Port Talbot, SA12 8ES",BAJ,Arriva Trains Wales,SA12 8ES,Baglan,51.61562003,"79,607",-3.807289964
"Neath Railway Station, Station Square, Windsor Road, Neath, SA11 1BY",NTH,Arriva Trains Wales,SA11 1BY,Neath,51.66232001,"79,411",-3.806579981
"North Llanrwst Railway Station, Station Road, Llanrwst, LL26 0EG",NLR,Arriva Trains Wales,LL26 0EG,North Llanrwst,53.14395005,"40,060",-3.802169965
"Llandovery Railway Station, Station Yard, Llandovery, SA20 0BG",LLV,Arriva Trains Wales,SA20 0BG,Llandovery,51.99499013,"79,077",-3.801719868
"Betws-y-Coed Railway Station, Station Approach Road, Betws-y-Coed, LL24 0AE",BYC,Arriva Trains Wales,LL24 0AE,Betws-y-Coed,53.09236009,"40,061",-3.80102993
"Glan Conwy Railway Station, Conwy Road, off A470, Glan Conwy, LL28 5ED",GCW,Arriva Trains Wales,LL28 5ED,Glan Conwy,53.26782007,"40,055",-3.797349939
"Station Road, SHOTTS, ML7 5DX",SHS,ScotRail,ML7 5DX,Shotts,55.81794995,"7,434",-3.797329896
"Llanrwst Railway Station, Denbigh Street, Llanrwst, LL26 0AD",LWR,Arriva Trains Wales,LL26 0AD,Llanrwst,53.13928001,"40,059",-3.79540993
"Meeks Road, Falkirk, FK2 7EZ",FKG,ScotRail,FK2 7EZ,Falkirk Grahamston,56.00502993,"5,041",-3.789249978
"Alloa Railway Station, Station Road, Alloa, Clackmananshire, FK10 1BA",ALO,ScotRail,FK10 1BA,Alloa,56.11804992,"3,375",-3.788619898
"High Station Road, Falkirk, FK1 5QX",FKK,ScotRail,FK1 5QX,Falkirk High,55.99407995,"5,109",-3.787819924
"Station Drive, Morchard Road, Crediton, Devon, EX17 5LR",MRD,Great Western Railway,EX17 5LR,Morchard Road,50.83143011,"83,236",-3.776639919
"Station Approach, Copplestone, Crediton, Devon, EX17 5NE",COP,Great Western Railway,EX17 5NE,Copplestone,50.81267005,"83,238",-3.750369894
"Cynghordy Railway Station, Cynghordy, Llandovery, SA20 0LY",CYN,Arriva Trains Wales,SA20 0LY,Cynghordy,52.04960013,"79,078",-3.749859939
"Station Road, PITLOCHRY, PH16 5AN",PIT,ScotRail,PH16 5AN,Pitlochry,56.70283996,"3,102",-3.736709928
"Station Approach, Yeoford, Crediton, Devon, EX17 5JB",YEO,Great Western Railway,EX17 5JB,Yeoford,50.77683006,"83,319",-3.728369988
"Gleneagles, -, PH3 1JL",GLE,ScotRail,PH3 1JL,Gleneagles,56.28494988,"3,153",-3.7278299
"Colwyn Bay Railway Station, Princes Drive, Colwyn Bay, LL29 8DF",CWB,Arriva Trains Wales,LL29 8DF,Colwyn Bay,53.296587,"40,071",-3.725609
"Fauldhouse, -, EH47 9DJ",FLD,ScotRail,EH47 9DJ,Fauldhouse,55.82344996,"4,086",-3.718079949
"Station Road, Polmont, FK2 0UP",PMT,ScotRail,FK2 0UP,Polmont,55.98778992,"5,111",-3.71670989
"Pyle Railway Station, Beach Road, Pyle, Bridgend, CF33 6AR",PYL,Arriva Trains Wales,CF33 6AR,Pyle,51.52612014,"79,785",-3.698069958
"Station Way, Armadale, EH48 3LP",ARM,ScotRail,EH48 3LP,Armadale (West Lothian),55.88628986,"7,324",-3.697259893
"Station Road, Totnes, TQ9 5JR",TOT,Great Western Railway,TQ9 5JR,Totnes,50.43405002,"83,702",-3.687849867
"Strawfrank Road, Carstairs, South Lanarkshire, ML11 8PR",CRS,ScotRail,ML11 8PR,Carstairs,55.69239994,"7,962",-3.670199984
"Breich, -, EH55 8JH",BRC,ScotRail,EH55 8JH,Breich,55.82773999,"4,088",-3.665099892
"Helmsdale, Highland, KW8 6HH",HMS,ScotRail,KW8 6HH,Helmsdale,58.11694995,"1,016",-3.66421988
"Sugar Loaf Railway Station, Sugar Loaf Mountain, Llanwrtyd Wells, LD5 4TE",SUG,Arriva Trains Wales,LD5 4TE,Sugar Loaf,52.09199004,"79,079",-3.662709923
"Altnabreac, -, KW12 6UR",ABC,ScotRail,KW12 6UR,Altnabreac,58.34467987,"1,010",-3.659659877
"Maesteg Railway Station, Castle Street, Maesteg, CF34 9BL",MST,Arriva Trains Wales,CF34 9BL,Maesteg,51.60944004,"79,828",-3.657739911
"Maesteg Ewenny Road Railway Station, Ewenny Road, Maesteg, CF34 9TS",MEW,Arriva Trains Wales,CF34 9TS,Maesteg (Ewenny Road),51.60525009,"79,825",-3.647269888
"Station Approach, Crediton, Devon, EX17 3BY",CDI,Great Western Railway,EX17 3BY,Crediton,50.78322003,"83,321",-3.64582988
"Garth Railway Station, Mill Street, Garth, Maesteg, CF34 9HS",GMG,Arriva Trains Wales,CF34 9HS,Garth (Mid Glamorgan),51.59671013,"79,824",-3.641969906
"Llanwrtyd Railway Station, Station Road, Llanwrtyd Wells, LD5 4RW",LNW,Arriva Trains Wales,LD5 4RW,Llanwrtyd,52.10625009,"79,082",-3.637109929
"Edinburgh Road, Bathgate, -, EH48 1BA",BHG,ScotRail,EH48 1BA,Bathgate,55.89843987,"4,010",-3.636439898
"Addiewell, -, EH55 8NQ",ADW,ScotRail,EH55 8NQ,Addiewell,55.84392995,"4,090",-3.605309896
"Lovers Walk, DUMFRIES, DG1 1NF",DMF,ScotRail,DG1 1NF,Dumfries,55.07396012,"9,022",-3.601429878
"Station Road, Newton Abbot, Devon, TQ12 2JE",NTA,Great Western Railway,TQ12 2JE,Newton Abbot,50.52723005,"83,624",-3.599639992
"Station Road, Linlithgow, EH49 7DH",LIN,ScotRail,EH49 7DH,Linlithgow,55.97637989,"5,119",-3.596709934
"Tondu Railway Station, Tondu, Mid Glamorgan, CF32 9DR",TDU,Arriva Trains Wales,CF32 9DR,Tondu,51.54812004,"79,811",-3.595849965
"Sarn Railway Station, Heol Persondy, off Sarn Hill, Sarn, CF32 9RL",SRR,Arriva Trains Wales,CF32 9RL,Sarn,51.53859003,"79,808",-3.590679925
"Sweetham Road, Newton St Cyres, Exeter, Devon, EX5 5AP",NTC,Great Western Railway,EX5 5AP,Newton St Cyres,50.78053009,"83,322",-3.586629877
"Off - Bransty Row, WHITEHAVEN, Cumbria, CA28 6AX",WTH,Northern,CA28 6AX,Whitehaven,54.55312003,"10,101",-3.586599879
"Main Street, St Bees, Cumbria, CA27 0BZ",SBS,Northern,CA27 0BZ,St Bees,54.49380003,"10,199",-3.58313996
"Wildmill Railway Station, Wildmill Lane, CF31 1RW",WMI,Arriva Trains Wales,CF31 1RW,Wildmill,51.52033011,"79,807",-3.581369981
"Station Road, Corkickle, Cumbria, CA28 8AP",CKL,Northern,CA28 8AP,Corkickle,54.54124013,"10,124",-3.580919885
"Abergele and Pensarn Railway Statio, Station Approach, Abergele, Clwyd, LL22 7PR",AGL,Arriva Trains Wales,LL22 7PR,Abergele & Pensarn,53.29426012,"40,073",-3.580309985
"Bridgend Railway Station, Station Hill, Bridgend, Mid Glamorgan, CF31 1BN",BGN,Arriva Trains Wales,CF31 1BN,Bridgend,51.50633008,"79,791",-3.576099996
"Dunkeld, -, PH8 0DP",DKD,ScotRail,PH8 0DP,Dunkeld & Birnam,56.55695994,"3,106",-3.575379924
"West Calder, West Lothian, EH55 8BP",WCL,ScotRail,EH55 8BP,West Calder,55.85303987,"4,101",-3.565929947
"Station Square, Paignton, Torbay, TQ4 5EF",PGN,Great Western Railway,TQ4 5EF,Paignton,50.43433009,"83,631",-3.565529891
"Grecian Terrace, Harrington, Cumbria, CA14 5QQ",HRR,Northern,CA14 5QQ,Harrington,54.61166009,"10,057",-3.565139926
"Station Road, WORKINGTON, Cumbria, CA14 2UZ",WKG,Northern,CA14 2UZ,Workington,54.64498003,"10,050",-3.556579915
"Railway Station, Nethertown, Cumbria, CA22 2UG",NRT,Northern,CA22 2UG,Nethertown,54.46368012,"10,197",-3.556429928
"Llangammarch Railway Station, Llangammarch Wells, LD4 4EE",LLM,Arriva Trains Wales,LD4 4EE,Llangammarch,52.11414007,"79,083",-3.555919974
"Livingston, West Lothian, EH54 7EE",LSN,ScotRail,EH54 7EE,Livingston North,55.89817999,"4,025",-3.550159941
"Newton Road, Torre, Torquay, Torbay, TQ2 5DD",TRR,Great Western Railway,TQ2 5DD,Torre,50.47347006,"83,627",-3.546629937
"Bonhay Road, Exeter, EX4 4NT",EXD,Great Western Railway,EX4 4NT,Exeter St David's,50.72919007,"83,421",-3.54312993
"Rathmore Road, Torquay, Torbay, TQ2 6NU",TQY,Great Western Railway,TQ2 6NU,Torquay,50.46129005,"83,628",-3.543009941
"Cowick Street, Exeter, Devon, EX4 1AJ",EXT,Great Western Railway,EX4 1AJ,Exeter St Thomas,50.71710005,"83,517",-3.539359948
"Railway Station, Braystones, CA21 2YW",BYS,Northern,CA21 2YW,Braystones (Cumbria),54.4415301,"10,195",-3.538189916
"Treherbert Railway Station, Station Street, Treherbert, CF42 5HU",TRB,Arriva Trains Wales,CF42 5HU,Treherbert,51.67191002,"78,001",-3.53490998
"Queen Street, Exeter, Devon, EX4 3SB",EXC,Great Western Railway,EX4 3SB,Exeter Central,50.72594013,"83,431",-3.533399887
"Garth Railway Station, Llais-yr-Afon, Garth, Llangammarch Wells, LD4 4AF",GTH,Arriva Trains Wales,LD4 4AF,Garth (Powys),52.13353007,"79,084",-3.530509917
"Princes Street, Thurso, KW14 7DL",THS,ScotRail,KW14 7DL,Thurso,58.59037,"1,001",-3.527399876
"Well Street, St James, Exeter, Devon, EX4 6QB",SJP,Great Western Railway,EX4 6QB,St James Park (Exeter),50.73154009,"83,435",-3.522279877
"Station Road, Flimby, Cumbria, CA15 8QN",FLM,Northern,CA15 8QN,Flimby,54.69026005,"10,026",-3.519899998
"Ynyswen Railway Station, Ynyswen Road, Ynyswen, Treorchy, CF42 6EG",YNW,Arriva Trains Wales,CF42 6EG,Ynyswen,51.66557009,"78,002",-3.515899991
"Treorchy Railway Station, Station Road, Treorchy, CF42 6UE",TRY,Arriva Trains Wales,CF42 6UE,Treorchy,51.65758003,"78,004",-3.505959966
"Pinhoe Road, Polsloe Bridge, Exeter, Devon, EX4 8AB",POL,Great Western Railway,EX4 8AB,Polsloe Bridge,50.73154009,"83,447",-3.500609942
"Pencoed Railway Station, The Square, Pencoed, Bridgend, CF35 5NP",PCD,Arriva Trains Wales,CF35 5NP,Pencoed,51.52373003,"79,798",-3.500419868
"Uphall, -, EH54 5QG",UHA,ScotRail,EH54 5QG,Uphall,55.91329987,"4,028",-3.498919866
"Livingston, West Lothian, EH54 9AP",LVG,ScotRail,EH54 9AP,Livingston South,55.86869998,"4,102",-3.498679887
"Scotscalder, Highland, KW12 6YH",SCT,ScotRail,KW12 6YH,Scotscalder,58.51456988,"1,009",-3.498399957
"Millpot Road, Maryport, Cumbria, CA15 6DA",MRY,Northern,CA15 6DA,Maryport,54.71259006,"10,023",-3.496429951
"Station Road, East Brook Street, Teignmouth, TQ14 8PG",TGM,Great Western Railway,TQ14 8PG,Teignmouth,50.54809005,"83,607",-3.494459944
"Digby Drive, Digby, Exeter, Devon, EX2 7AW",DIG,Great Western Railway,EX2 7AW,Digby & Sowton,50.70221006,"83,449",-3.49120987
"Station Road, Sellafield, Cumbria, CA20 1RG",SEL,Northern,CA20 1RG,Sellafield,54.4170201,"10,201",-3.488899939
"Rhyl Railway Station, Bodfar Street, Rhyl, LL18 1AT",RHL,Arriva Trains Wales,LL18 1AT,Rhyl,53.31890006,"40,076",-3.488879896
"Gosforth Road, Seascale, Cumbria, CA20 1QL",SSC,Northern,CA20 1QL,Seascale,54.39935003,"10,203",-3.486729905
"Ton Pentre Railway Station, Ystrad Road, Ton Pentre, CF41 7PN",TPN,Arriva Trains Wales,CF41 7PN,Ton Pentre,51.64731003,"78,006",-3.484859981
"Llantwit Major Railway Station, Llanmaes Road, Llantwit Major, Vale of Glamorgan, CF61 1ST",LWM,Arriva Trains Wales,CF61 1ST,Llantwit Major,51.40946011,"78,915",-3.484219947
"Newcourt Railway Station, Liberty Way, Exeter, EX2 7AS",NCO,Great Western Railway,EX2 7AS,Newcourt,50.70381001,"83,476",-3.473189928
"Pinhoe, Devon, EX1 3SE",PIN,South West Trains,EX1 3SE,Pinhoe,50.73825008,"83,453",-3.467819997
"Station Road, Topsham, Exeter, Devon, EX3 0DS",TOP,Great Western Railway,EX3 0DS,Topsham,50.68591006,"83,471",-3.464849989
"Richmond Place, Dawlish, Devon, EX7 9PJ",DWL,Great Western Railway,EX7 9PJ,Dawlish,50.58068011,"83,605",-3.464699866
"Cilmeri Railway Station, Cilmeri, Builth Wells, LD2 3NU",CIM,Arriva Trains Wales,LD2 3NU,Cilmeri,52.15157006,"79,085",-3.458429879
"Ystrad Rhondda Railway Station, Brook St, Ystrad Rhondda, CF41 7SR",YSR,Arriva Trains Wales,CF41 7SR,Ystrad Rhondda,51.64274007,"78,008",-3.454029952
"Llwynpia Railway Station, Llwynypia Road, Llwynpia, CF40 2JJ",LLY,Arriva Trains Wales,CF40 2JJ,Llwynypia,51.63307003,"78,010",-3.452689889
"Comely Park, Dunfermline, KY12 7HT",DFE,ScotRail,KY12 7HT,Dunfermline Town,56.06830998,"3,321",-3.452639985
"Tonypandy Railway Station, Trealaw Road, Tonypandy, CF40 2TU",TNP,Arriva Trains Wales,CF40 2TU,Tonypandy,51.61994006,"78,012",-3.450719883
"The Strand, Starcross, Exeter, Devon, EX6 8PA",SCS,Great Western Railway,EX6 8PA,Starcross,50.6287901,"83,602",-3.448449903
"Station Road, Exton, Exeter, Devon, EX3 0PR",EXN,Great Western Railway,EX3 0PR,Exton,50.67011006,"83,472",-3.445179922
"Station Road, Drigg, Cumbria, CA19 1XW",DRI,Northern,CA19 1XW,Drigg,54.37838013,"10,205",-3.444169966
"Beach Road, Dawlish Warren, Dawlish, Devon, EX7 0NF",DWW,Great Western Railway,EX7 0NF,Dawlish Warren,50.59845012,"83,603",-3.442399987
"Llanharan Railway Station, Chapel Road, Llanharan, CF72 9QA",LLR,Arriva Trains Wales,CF72 9QA,Llanharan,51.53806003,"78,615",-3.440959979
"Leonard Street, PERTH, PH2 8RT",PTH,ScotRail,PH2 8RT,Perth,56.39212993,"3,140",-3.437969927
"Dinas Rhondda Railway Station, Station Cottages, Trealaw, CF40 2PJ",DMG,Arriva Trains Wales,CF40 2PJ,Dinas (Rhondda),51.61736002,"78,014",-3.435849934
"Caersws Railway Station, Station Road, Caersws, SY17 5HH",CWS,Arriva Trains Wales,SY17 5HH,Caersws,52.51555002,"64,312",-3.435419881
"The Strand, Lympstone, Exmouth, Devon, EX8 5JW",LYM,Great Western Railway,EX8 5JW,Lympstone Village,50.64783008,"83,474",-3.430409918
"Kirknewton, West Lothian, EH27 8BP",KKN,ScotRail,EH27 8BP,Kirknewton,55.88936991,"4,112",-3.429659985
"Builth Road Railway Station, Llechrhyd Terrace, Builth Road, Builth Wells, LD2 3PY",BHR,Arriva Trains Wales,LD2 3PY,Builth Road,52.16908004,"79,080",-3.427429956
"Queensferry Road, Rosyth, DUNFERMLINE, Fife, KY11 2JF",ROS,ScotRail,KY11 2JF,Rosyth,56.04356996,"3,323",-3.425899956
"Hill of St Margaret, off Whitefield Road, Dunfermline, KY12 0GB",DFL,ScotRail,KY12 0GB,Dunfermline Queen Margaret,56.08099994,"3,319",-3.422759917
"Lympstone, Exmouth, Devon, EX8 5AA",LYC,Great Western Railway,EX8 5AA,Lympstone Commando,50.64415009,"83,473",-3.421699921
"Station Approach, Cranbrook, Exeter, EX5 2DY",CBK,South West Trains,EX5 2DY,Cranbrook (Devon),50.74428009,"83,454",-3.41495993
"Imperial Road, Exmouth, Devon, EX8 1BZ",EXM,Great Western Railway,EX8 1BZ,Exmouth,50.62150006,"83,475",-3.414929932
"Cwmbach Railway Station, Cwmbach Road, Cwmbach, CF44 0AG",CMH,Arriva Trains Wales,CF44 0AG,Cwmbach,51.70109006,"78,110",-3.413439883
"Porth Railway Station, Station Street, Porth, Rhondda, CF39 0ES",POR,Arriva Trains Wales,CF39 0ES,Porth,51.6261401,"78,015",-3.410399926
"Station Hill, Main Street, Ravenglass, Cumbria, CA18 1SW",RAV,Northern,CA18 1SW,Ravenglass for Eskdale,54.3566701,"10,206",-3.409299979
"Prestatyn Railway Station, Bridge Road, Prestatyn, Clwyd, LL19 7ER",PRT,Arriva Trains Wales,LL19 7ER,Prestatyn,53.33664008,"40,101",-3.407079904
"North Queensferry, City of Edinburgh, KY11 1JE",NQU,ScotRail,KY11 1JE,North Queensferry,56.01277988,"3,338",-3.396789865
"Boreland Road, Inverkeithing, KY11 1NJ",INK,ScotRail,KY11 1NJ,Inverkeithing,56.03524992,"3,331",-3.395909989
"Fernhill Railway Station, Station Road, Fernhill, Rhondda, CF45 3DP",FER,Arriva Trains Wales,CF45 3DP,Fernhill,51.68513012,"78,129",-3.395789999
"Sampford, Peverell, Tiverton, Devon, EX15 2QQ",TVP,Great Western Railway,EX15 2QQ,Tiverton Parkway,50.90123007,"83,038",-3.394029974
"Pontyclun Railway Station, Station Approach, Pontyclun, Bridgend, CF72 9DS",PYC,Arriva Trains Wales,CF72 9DS,Pontyclun,51.52418013,"78,608",-3.391989883
"Hycemoor Road, Bootle, LA19 5TA",BOC,Northern,LA19 5TA,Bootle (Cumbria),54.29048004,"11,209",-3.391209953
"Station Road, Dalmeny, EH30 9JU",DAM,ScotRail,EH30 9JU,Dalmeny,55.98612998,"4,201",-3.382139987
"Trehafod Railway Station, Station Approach, Trehafod, Pontypridd, CF37 2LL",TRH,Arriva Trains Wales,CF37 2LL,Trehafod,51.60971001,"78,017",-3.381289972
"Llandrindod Railway Station, Station Crescent, Llandrindod Wells, LD1 5BB",LLO,Arriva Trains Wales,LD1 5BB,Llandrindod,52.24177012,"79,081",-3.379069897
"Mountain Ash Railway Station, Henry Street, Mountain Ash, CF45 3HD",MTA,Arriva Trains Wales,CF45 3HD,Mountain Ash,51.68137009,"78,130",-3.377499946
"Pentre Bach Railway Station, Station Approach, Pentre Bach, CF48 4BD",PTB,Arriva Trains Wales,CF48 4BD,Pentre-Bach,51.72520001,"78,140",-3.361169945
"Penrhiwceiber Railway Station, Station Approach, Penrhiwceiber, CF45 3ST",PER,Arriva Trains Wales,CF45 3ST,Penrhiwceiber,51.66874012,"78,132",-3.359989959
"Dalgety Bay, -, KY11 9HZ",DAG,ScotRail,KY11 9HZ,Dalgety Bay,56.04209995,"3,298",-3.359509865
"Station Square, Lockerbie, DG11 2HA",LOC,ScotRail,DG11 2HA,Lockerbie,55.12203003,"7,981",-3.354509992
"Rhoose Cardiff International Airpor, off Torbay Terrace, Rhoose, CF62 3HB",RIA,Arriva Trains Wales,CF62 3HB,Rhoose Cardiff International Airport,51.38736012,"78,901",-3.347599971
"Whimple, Devon, EX5 2QW",WHM,South West Trains,EX5 2QW,Whimple,50.7692001,"83,460",-3.346889988
"Troed Y Rhiw Railway Station, Station Terrace, Troed y Rhiw, Merthyr, CF48 4DY",TRD,Arriva Trains Wales,CF48 4DY,Troed-y-rhiw,51.71156009,"78,142",-3.346609922
"Station Road, Cowdenbeath, Fife, KY4 9SQ",COW,ScotRail,KY4 9SQ,Cowdenbeath,56.11172989,"3,256",-3.341489923
"Pontypridd Railway Station, Broadway, Pontypridd, CF37 1DT",PPD,Arriva Trains Wales,CF37 1DT,Pontypridd,51.59894002,"78,215",-3.341289896
"Merthyr Vale Railway Station, Merthyr Street, CF48 4TE",MEV,Arriva Trains Wales,CF48 4TE,Merthyr Vale,51.68658008,"78,144",-3.337709987
"Station Road, Aspatria, Cumbria, CA7 2AW",ASP,Northern,CA7 2AW,Aspatria,54.75796007,"10,021",-3.334479957
"Main Street, Silecroft, Cumbria, LA18 5LP",SIC,Northern,LA18 5LP,Silecroft,54.22648006,"11,210",-3.333439867
"Pen-y-Bont Railway Station, Station Road, Pen-y-Bont, Llandrindod Wells, LD1 6RE",PNY,Arriva Trains Wales,LD1 6RE,Pen-y-Bont,52.27391008,"79,092",-3.330109891
"Abercynon Railway Station, Station Road, Abercynon, CF45 4SE",ACY,Arriva Trains Wales,CF45 4SE,Abercynon,51.64308014,"78,204",-3.329879866
"Currie, -, EH14 4AA",CUH,ScotRail,EH14 4AA,Curriehill,55.89927994,"4,114",-3.328509942
"Trefforest Railway Station, Park Street, Trefforest, Pontypridd, CF37 1SL",TRF,Arriva Trains Wales,CF37 1SL,Trefforest,51.59118012,"78,216",-3.324459894
"Quakers Yard Railway Station, Station Road, Quakers Yard, CF46 5NJ",QYD,Arriva Trains Wales,CF46 5NJ,Quakers Yard,51.66069007,"78,146",-3.322639874
"Newtown Railway Station, Old Kerry Road, Newtown, SY16 1BP",NWT,Arriva Trains Wales,SY16 1BP,Newtown (Powys),52.51303011,"64,307",-3.309899872
"Station Road, Elgin, IV30 1QP",ELG,ScotRail,IV30 1QP,Elgin,57.6431499,"2,007",-3.307889914
"Lochgelly, Fife, KY5 9EP",LCG,ScotRail,KY5 9EP,Lochgelly,56.13287992,"3,249",-3.305919908
"Cultins Road, Edinburgh, EH11 4DF",EDP,ScotRail,EH11 4DF,Edinburgh Park,55.9252099,"4,039",-3.305359912
"Station Place, Aberdour, Burntisland, KY3 0SN",AUR,ScotRail,KY3 0SN,Aberdour,56.0543799,"3,295",-3.301459986
"South Gyle, City of Edinburgh, EH12 9EU",SGL,ScotRail,EH12 9EU,South Gyle,55.93334,"4,211",-3.295159865
"Barry Railway Station, Broad Street, Barry, Vale of Glamorgan, CF62 8AF",BRY,Arriva Trains Wales,CF62 8AF,Barry,51.4157601,"78,810",-3.293279987
"Trefforest Estate Railway Station, Willowford Road, Trefforest, CF38 1SG",TRE,Arriva Trains Wales,CF38 1SG,Trefforest Estate,51.56867012,"78,218",-3.290689991
"Feniton, Honiton, EX14 3BT",FNT,South West Trains,EX14 3BT,Feniton,50.78662009,"83,458",-3.285689981
"Pontlottyn Railway Station, Picton Street, Pontlottyn, CF81 9QX",PLT,Arriva Trains Wales,CF81 9QX,Pontlottyn,51.74644003,"78,343",-3.279829866
"Wester Hailes, City of Edinburgh, EH14 3AQ",WTA,ScotRail,EH14 3AQ,Wester Hailes,55.9144699,"4,116",-3.278279959
"Barry Island Railway Station, The Parade, Barry, Vale of Glamorgan, CF62 5TH",BYI,Arriva Trains Wales,CF62 5TH,Barry Island,51.39211006,"78,817",-3.275259909
"Station Road, Millom, Cumbria, LA18 4AY",MLM,Northern,LA18 4AY,Millom,54.21195003,"11,211",-3.265229893
"Taffs Well Railway Station, Cardiff Road, Taffs Well, CF15 7PE",TAF,Arriva Trains Wales,CF15 7PE,Taffs Well,51.54059003,"78,220",-3.264099948
"Dolau Railway Station, Station Road, Dolau, Llandrindod Wells, LD1 5TG",DOL,Arriva Trains Wales,LD1 5TG,Dolau,52.29533008,"79,093",-3.263079903
"Barry Docks Railway Station, Dockview Road, Barry, Vale of Glamorgan, CF63 4LE",BYD,Arriva Trains Wales,CF63 4LE,Barry Docks,51.40263013,"78,805",-3.262709981
"Kingsknowe, City of Edinburgh, EH14 2JX",KGE,ScotRail,EH14 2JX,Kingsknowe,55.91815998,"4,118",-3.262549904
"Station Road, Annan, DG12 6AS",ANN,ScotRail,DG12 6AS,Annan,54.98362003,"9,033",-3.262329969
"Cardenden, -, KY5 0BP",CDD,ScotRail,KY5 0BP,Cardenden,56.14272,"3,248",-3.260579898
"Cadoxton Railway Station, Little Moors Hill, Cadoxton, Barry, Vale of Glamorgan, CF63 2JP",CAD,Arriva Trains Wales,CF63 2JP,Cadoxton,51.41277004,"78,719",-3.248969977
"Tir-Pil Railway Station, Station Terrace, Tir Phil, NP24 6EL",TIR,Arriva Trains Wales,NP24 6EL,Tir-Phil,51.72110005,"78,346",-3.245529965
"off Main Street, Green Road, Cumbria, LA18 5HR",GNR,Northern,LA18 5HR,Green Road,54.26318002,"11,215",-3.242599907
"Ystrad Mynach Railway Station, Nelson Road, Ystrad Mynach, CF82 7BP",YSM,Arriva Trains Wales,CF82 7BP,Ystrad Mynach,51.64264013,"78,362",-3.242029958
"Slateford, City of Edinburgh, EH14 1BX",SLA,ScotRail,EH14 1BX,Slateford,55.92418999,"4,105",-3.237869874
"Fairwater Railway Station, Pwllmelin Raod, CF5 3QE",FRW,Arriva Trains Wales,CF5 3QE,Fairwater,51.49450009,"78,507",-3.236379961
"Burntisland, Fife, KY3 9DR",BTS,ScotRail,KY3 9DR,Burntisland,56.05709998,"3,291",-3.235089939
"Danescourt Railway Station, Llantrisant Road, CF5 2RX",DCT,Arriva Trains Wales,CF5 2RX,Danescourt,51.50055,"78,505",-3.234689884
"Llanbradach Railway Station, Plas Station Road, Llanbradach, CF83 3NE",LNB,Arriva Trains Wales,CF83 3NE,Llanbradach,51.60297002,"78,369",-3.232879954
"Llwyn-on-Street, Caerphilly, CF83 2QR",ECP,Arriva Trains Wales,CF83 2QR,Energlyn & Churchill Park,51.58366006,"78,370",-3.230679923
"Coryton Railway Station, Park Road, CF14 7BW",COY,Arriva Trains Wales,CF14 7BW,Coryton,51.52097,"78,381",-3.23054998
"Bargoed Railway Station, Station Road, Bargoed, CF81 9AL",BGD,Arriva Trains Wales,CF81 9AL,Bargoed,51.69340011,"78,351",-3.230029935
"Pengam Railway Station, Pengam Road, Pengam, NP12 3XL",PGM,Arriva Trains Wales,NP12 3XL,Pengam,51.67010009,"78,356",-3.229419899
"Nantgarw Road, -, CF83 1AQ",ABE,Arriva Trains Wales,CF83 1AQ,Aber,51.57601006,"78,371",-3.229219871
"Waungron Park Railway Station, Waungron Road, CF5 2BN",WNG,Arriva Trains Wales,CF5 2BN,Waun-Gron Park,51.48703007,"78,509",-3.228739914
"Gilfach Fargoed Railway Station, Angel Lane, Bargoed, CF81 8LT",GFF,Arriva Trains Wales,CF81 8LT,Gilfach Fargoed,51.68446009,"78,353",-3.228479891
"Brithdir Railway Station, Station Road, Brithdir, New Tredegar, NP24 6XY",BHD,Arriva Trains Wales,NP24 6XY,Brithdir,51.70964012,"78,349",-3.228239913
"Hengoed Railway Station, Station Approach, Hengoed, CF82 7LT",HNG,Arriva Trains Wales,CF82 7LT,Hengoed,51.64726013,"78,359",-3.226209912
"Central Station, BARROW-IN-FURNESS, Cumbria, LA14 5QZ",BIF,Northern,LA14 5QZ,Barrow-in-Furness,54.11855007,"11,231",-3.225849944
"Whitchurch Railway Station, off Pen-y-Dre, Whitchurch, CF14 1BP",WHT,Arriva Trains Wales,CF14 1BP,Whitchurch (Cardiff),51.52067003,"78,383",-3.222219994
"Caerphilly Railway Station, Station Road, CF83 1JR",CPH,Arriva Trains Wales,CF83 1JR,Caerphilly,51.57169003,"78,374",-3.219519962
"Haymarket Terrace, Edinburgh, EH12 5EY",HYM,ScotRail,EH12 5EY,Haymarket,55.94566999,"4,235",-3.21822994
"Llanbister Road Railway Station, Llanbister Road, Llandrindod Wells, LD1 5UW",LLT,Arriva Trains Wales,LD1 5UW,Llanbister Road,52.33159003,"79,094",-3.217659991
"Dinas Powys Railway Station, Cardiff Road, Dinas Powys, CF64 4DH",DNS,Arriva Trains Wales,CF64 4DH,Dinas Powys,51.43273013,"78,717",-3.216709894
"Railway Station, Broughton, Cumbria, LA20 6BX",FOX,Northern,LA20 6BX,Foxfield,54.26018001,"11,221",-3.216429964
"Rhiwbina Railway Station, off Pen-y-Dre, Rhiwbina, CF14 6EP",RHI,Arriva Trains Wales,CF14 6EP,Rhiwbina,51.52166008,"78,385",-3.21272993
"Eastbrook Railway Station, Cardiff Road, Dinas Powys, CF64 4LD",EBK,Arriva Trains Wales,CF64 4LD,Eastbrook,51.43800012,"78,713",-3.207379906
"Birchgrove Railway Station, Caerphilly Road, CF14 4SY",BCG,Arriva Trains Wales,CF14 4SY,Birchgrove,51.522,"78,387",-3.202889987
"Duddon Road, Askham, Cumbria, LA16 7EN",ASK,Northern,LA16 7EN,Askam,54.18926005,"11,225",-3.202769998
"Ebbw Vale Town Railway Station, Steelworks Road, Ebbw Vale, Blaenau Gwent, NP23 6DN",EBB,Arriva Trains Wales,NP23 6DN,Ebbw Vale Town,51.7772601,"76,647",-3.201969887
"Ninian Park Railway Station, Leckwith Road, CF11 8AH",NNP,Arriva Trains Wales,CF11 8AH,Ninian Park,51.47562004,"78,511",-3.201149869
"Ebbw Vale Parkway Railway Station, Off Glan Ebbw Terrace, Victoria, Ebbw Vale, NP23 8AP",EBV,Arriva Trains Wales,NP23 8AP,Ebbw Vale Parkway,51.75671002,"76,646",-3.196789894
"Flass Lane, Roose, Cumbria, LA13 9SJ",ROO,Northern,LA13 9SJ,Roose,54.11437008,"11,261",-3.196529872
"Ty Glas Railway Station, off Maes-y-Coed Road, CF14 5DL",TGS,Arriva Trains Wales,CF14 5DL,Ty Glas,51.52224012,"78,389",-3.196349888
"Grangetown Railway Station, Penarth Road, CF11 8UY",GTN,Arriva Trains Wales,CF11 8UY,Grangetown (Cardiff),51.46720006,"78,705",-3.190739978
"Cogan Railway Station, Station Approach, Cogan, CF64 2NS",CGN,Arriva Trains Wales,CF64 2NS,Cogan,51.44543005,"78,711",-3.190469865
"Waverley Station, Edinburgh, EH1 1BB",EDB,Network Rail,EH1 1BB,Edinburgh,55.95208996,"4,303",-3.190409871
"Beckside Road, Kirby in Furness, Cumbria, LA17 7UB",KBF,Northern,LA17 7UB,Kirkby-in-Furness,54.22774008,"11,223",-3.189409869
"Church Hill, Honiton, EX14 2DA",HON,South West Trains,EX14 2DA,Honiton,50.79651008,"83,461",-3.186699883
"-, Cherry Orchard Road, CF14 0UE",LVT,Arriva Trains Wales,CF14 0UE,Lisvane & Thornhill,51.54520007,"78,376",-3.18656994
"Grange Road, West Kirby, Wirral, CH48 4DZ",WKI,Merseyrail,CH48 4DZ,West Kirby,53.37298007,"38,001",-3.183539937
"Llanishen Railway Station, Station Road, Llanishen, CF14 5UW",LLS,Arriva Trains Wales,CF14 5UW,Llanishen,51.53214006,"78,378",-3.182389948
"Station Road, Hoylake, Merseyside, CH47 4AA",HYK,Merseyrail,CH47 4AA,Hoylake,53.38965013,"38,004",-3.179549883
"Dingle Road Railway Station, Windsor Road, Penarth, CF64 1JL",DGL,Arriva Trains Wales,CF64 1JL,Dingle Road,51.43975005,"78,710",-3.179509932
"Heath High Level Railway Station, Heath Halt Road, CF23 5QT",HHL,Arriva Trains Wales,CF23 5QT,Heath High Level,51.51252003,"78,380",-3.178699868
"Heath Low Level Railway Station, Heath Halt Road, CF23 5QT",HLL,Arriva Trains Wales,CF23 5QT,Heath Low Level,51.51252003,"78,391",-3.178699868
"Cardiff Central Railway Station, Central Square, CF10 1EP",CDF,Arriva Trains Wales,CF10 1EP,Cardiff Central,51.47656005,"77,301",-3.178469979
"Station Road, Dalton in Furness, Cumbria, LA15 8QA",DLT,Northern,LA15 8QA,Dalton (Cumbria),54.15367013,"11,271",-3.175919933
"Penarth Railway Station, Stanwell Road, Penarth, CF64 3DQ",PEN,Arriva Trains Wales,CF64 3DQ,Penarth,51.43546002,"78,715",-3.17407987
"Station Road, Kinghorn, KY3 9RA",KGH,ScotRail,KY3 9RA,Kinghorn,56.06953987,"3,283",-3.173699994
"Manor Road, Hoylake, Merseyside, CH47 3DF",MNR,Merseyrail,CH47 3DF,Manor Road,53.39584008,"38,005",-3.170919924
"Station Road, Kirkcaldy, KY1 1YL",KDY,ScotRail,KY1 1YL,Kirkcaldy,56.11193987,"3,272",-3.166619943
"Cardiff Bay Railway Station, Bute Street, CF10 5LE",CDB,Arriva Trains Wales,CF10 5LE,Cardiff Bay,51.4667801,"78,456",-3.166569902
"Llangynllo Railway Station, Llangynllo, LD7 1SY",LGO,Arriva Trains Wales,LD7 1SY,Llangynllo,52.35526011,"79,095",-3.165449911
"Station Road, Wigton, Cumbria, CA7 9BA",WGT,Northern,CA7 9BA,Wigton,54.82852006,"9,221",-3.163159887
"Birkenhead Road, Meols, Merseyside, CH47 9RA",MEO,Merseyrail,CH47 9RA,Meols,53.39927,"38,006",-3.155259954
"Glenrothes with Thornton, Rail Station, KY1 4AE",GLT,ScotRail,KY1 4AE,Glenrothes with Thornton,56.16359991,"3,241",-3.144799885
"Newbridge Railway Station, Off Bridge Street, Newbridge, NP11 5FH",NBE,Arriva Trains Wales,NP11 5FH,Newbridge,51.66574012,"76,634",-3.142059902
"Llanhilleth Railway Station, Commercial Road, Llanhilleth, Abertillery, Gwent, NP13 2HT",LTH,Arriva Trains Wales,NP13 2HT,Llanhilleth,51.70130004,"76,640",-3.139199929
"Welshpool Railway Station, adjacent to Welshpool Relief Road, Welshpool, SY21 7AZ",WLP,Arriva Trains Wales,SY21 7AZ,Welshpool,52.65621009,"64,304",-3.138029897
"Flint Railway Station, Market Square, Flint, CH6 5PG",FLN,Arriva Trains Wales,CH6 5PG,Flint,53.2500701,"40,125",-3.132039975
"High Street, Markinch, Glenrothes, KY7 6DH",MNC,ScotRail,KY7 6DH,Markinch,56.20058989,"3,226",-3.131499887
"Crosskeys Railway Station, Off Risca Road, Crosskeys, NP11 7BU",CKY,Arriva Trains Wales,NP11 7BU,Crosskeys,51.6215201,"76,632",-3.126439883
"Commercial Road, Ladybank, Cupar, KY15 7JS",LDY,ScotRail,KY15 7JS,Ladybank,56.27417989,"3,221",-3.124389974
"Pasture Road, Moreton, Merseyside, CH46 8SD",MRT,Merseyrail,CH46 8SD,Moreton (Merseyside),53.40686001,"38,008",-3.113659929
"Brunstane, -, EH15 2NG",BSU,ScotRail,EH15 2NG,Brunstane,55.94193996,"4,635",-3.100109999
"Reeds Lane, Leasowe, CH46 1QN",LSW,Merseyrail,CH46 1QN,Leasowe,53.40935006,"38,009",-3.099919925
"Station Approach, Taunton, Somerset, TA1 1QP",TAU,Great Western Railway,TA1 1QP,Taunton,51.02372008,"83,009",-3.099589954
"Station Approach, ULVERSTON, LA12 0DP",ULV,Northern,LA12 0DP,Ulverston,54.19139013,"11,311",-3.098389925
"Knucklas Railway Station, Glyndwr, Knucklas, Knighton, LD7 1PN",KNU,Arriva Trains Wales,LD7 1PN,Knucklas,52.36095006,"79,096",-3.098259982
"-, Off Maryland Road, Risca, NP11 6BB",RCA,Arriva Trains Wales,NP11 6BB,Risca & Pontymister,51.60442012,"76,630",-3.093369872
"Shawfair Station, 9 Harelaw, Dalkeith, EH22 1SB",SFI,ScotRail,EH22 1SB,Shawfair,55.91554994,"4,712",-3.088759964
"Newcraighall, -, EH21 8QT",NEW,ScotRail,EH21 8QT,Newcraighall,55.93733987,"4,718",-3.084119922
"Upton Railway Station, Noctarum Avenue, Upton, Merseyside, CH43 9RY",UPT,Arriva Trains Wales,CH43 9RY,Upton (Merseyside),53.38626002,"38,031",-3.082869988
"Eskbank Station, Unit 4, Hardengreen Industrial Estate, Dalkeith, EH22 3NX",EKB,ScotRail,EH22 3NX,Eskbank,55.88377991,"4,709",-3.081819945
"Station Approach, Bidston, Birkenhead, CH43 7RF",BID,Merseyrail,CH43 7RF,Bidston,53.40918003,"38,012",-3.077749989
"Musselburgh, East Lothian, EH21 6TT",MUB,ScotRail,EH21 6TT,Musselburgh,55.93590995,"4,803",-3.076669949
"Gretna Green, -, DG16 5HF",GEA,ScotRail,DG16 5HF,Gretna Green,55.00278,"9,085",-3.074749984
"Heswall Railway Station, off Brimstage Road, Heswall, Merseyside, CH60 1XQ",HSW,Arriva Trains Wales,CH60 1XQ,Heswall,53.32943008,"38,033",-3.074159991
"Leasowe Road, Wallasey, CH45 8PD",WLV,Merseyrail,CH45 8PD,Wallasey Village,53.42244008,"38,016",-3.070869965
"Kirkland Road, Formby, L37 2JF",FBY,Merseyrail,L37 2JF,Formby,53.55342001,"36,064",-3.07075993
"Victoria Road, Formby, Southport, Merseyside, L37 7DD",FRE,Merseyrail,L37 7DD,Freshfield,53.56618005,"36,063",-3.069789925
"Groveland Road, Wallasey, Merseyside, CH45 8JX",WLG,Merseyrail,CH45 8JX,Wallasey Grove Road,53.42802012,"38,018",-3.06895
"Station Road, Wick, KW1 4QT",WCK,ScotRail,KW1 4QT,Wick,58.47258998,"1,005",-3.067879913
"Newtongrange Station, 23 Murderdean Road, Newtongrange, EH22 4PE",NEG,ScotRail,EH22 4PE,Newtongrange,55.86437995,"4,711",-3.067269877
"Rogerstone Railway Station, Off Lily Way, Afon Village, Rogerstone, NP10 9LG",ROR,Arriva Trains Wales,NP10 9LG,Rogerstone,51.59344001,"76,628",-3.065639931
"Neston Railway Station, Ladies Walk, Neston, CH64 9SR",NES,Arriva Trains Wales,CH64 9SR,Neston,53.29181002,"38,035",-3.062269867
"Chirk Railway Station, Station Ave, Chirk, LL14 5LU",CRK,Arriva Trains Wales,LL14 5LU,Chirk,52.93273012,"41,407",-3.061709872
"Invergowrie, -, DD2 5DS",ING,ScotRail,DD2 5DS,Invergowrie,56.45653993,"3,067",-3.05968996
"Station Road, Birkenhead, CH41 7AZ",BKN,Merseyrail,CH41 7AZ,Birkenhead North,53.40438005,"38,151",-3.058189958
"St Georges Road, Hightown, Liverpool, Merseyside, L38 3RX",HTO,Merseyrail,L38 3RX,Hightown,53.52517002,"36,065",-3.056939887
"Buckley Railway Station, Off Little Mountain Road, Buckley, Clwyd, CH7 3AY",BCK,Arriva Trains Wales,CH7 3AY,Buckley,53.16276001,"41,019",-3.055439884
"Burlington Road, Blackpool, FY4 1NY",BPB,Northern,FY4 1NY,Blackpool Pleasure Beach,53.78773011,"30,034",-3.054499877
"Penyffordd Railway Station, Cowen Road, Pen y ffordd, Clwyd, CH4 0JT",PNF,Arriva Trains Wales,CH4 0JT,Penyffordd,53.1448501,"41,022",-3.050879881
"Talbot Road, Blackpool, FY1 2AB",BPN,Northern,FY1 2AB,Blackpool North,53.8220701,"30,021",-3.049699895
"Springfield, Fife, KY15 5QY",SPF,ScotRail,KY15 5QY,Springfield,56.29408993,"3,207",-3.049529865
"Atherton Street, New Brighton, Merseyside, CH45 2NY",NBN,Merseyrail,CH45 2NY,New Brighton,53.43786007,"38,010",-3.048039952
"St Annes Road West, St Annes, Lancashire, FY8 2SL",SQU,Northern,FY8 2SL,Squires Gate,53.77716,"30,035",-3.047739979
"Gorebridge Station, Station Road, Gorebridge, EH23 4JX",GBG,ScotRail,EH23 4JX,Gorebridge,55.83974996,"4,710",-3.047559995
"Waterloo Road, South Promenade, Blackpool, FY4 2FA",BPS,Northern,FY4 2FA,Blackpool South,53.79878003,"30,033",-3.046539949
"Hall Road East, Liverpool, Merseyside, L23 8TU",HLR,Merseyrail,L23 8TU,Hall Road,53.49880005,"36,066",-3.046169891
"Knighton Railway Station, Station Road, Knighton, LD7 1DT",KNI,Arriva Trains Wales,LD7 1DT,Knighton,52.34465005,"79,087",-3.045039946
"Ruabon Railway Station, Station Road, Ruabon, Wrexham, Clwyd, LL14 6DL",RUA,Arriva Trains Wales,LL14 6DL,Ruabon,52.98667009,"41,403",-3.04294995
"Station Road, Ainsdale, Southport, PR8 3HJ",ANS,Merseyrail,PR8 3HJ,Ainsdale,53.60204009,"36,062",-3.042379865
"Blundellsands Road East, Crosby, Liverpool, L23 8SE",BLN,Merseyrail,L23 8SE,Blundellsands & Crosby,53.48787012,"36,068",-3.039779914
"Shotton Railway Station, Chester Road West, Shotton, CH5 1BX",SHT,Arriva Trains Wales,CH5 1BX,Shotton,53.21206007,"40,209",-3.039409993
"Duke Street, Birkenhead, CH41 8BT",BKP,Merseyrail,CH41 8BT,Birkenhead Park,53.39689012,"38,153",-3.039239962
"Gobowen Railway Station, Station Road, Gobowen, Oswestry, SY11 3JS",GOB,Arriva Trains Wales,SY11 3JS,Gobowen,52.89351011,"64,111",-3.037839905
"Pye Corner, Western Valley Road, Pye Corner, Newport, NP10 9DS",PYE,Arriva Trains Wales,NP10 9DS,Pye Corner,51.57954006,"76,627",-3.037489891
"Hope (Flintshire) Railway Station, Llwyn Alun, Hope, LL12 9NJ",HPE,Arriva Trains Wales,LL12 9NJ,Hope (Flintshire),53.11719011,"41,025",-3.036809906
"Caergwrle Railway Station, Hawarden Road, Caergwrle, LL12 9DU",CGW,Arriva Trains Wales,LL12 9DU,Caergwrle,53.10855006,"41,027",-3.033549878
"Hawarden Bridge Railway Station, Dee Marsh Junction, Hawarden Bridge, CH5 1PY",HWB,Arriva Trains Wales,CH5 1PY,Hawarden Bridge,53.21455013,"39,005",-3.032329941
"Hawarden Railway Station, The Highway, Hawarden, CH5 1PY",HWD,Arriva Trains Wales,CH5 1PY,Hawarden,53.21455013,"41,017",-3.032329941
"Bispham Road, Layton, BLACKPOOL, Lancashire, FY2 0SX",LAY,Northern,FY2 0SX,Layton (Lancs),53.83595013,"30,027",-3.0307499
"Cefn-y-Bedd Railway Station, Wrexham Road, Cefn y Bedd, LL12 9UU",CYB,Arriva Trains Wales,LL12 9UU,Cefn-y-Bedd,53.09847,"41,029",-3.030629911
"Station Yard, St. Andrews Road North, LYTHAM ST ANNES, Lancashire, FY8 2JE",SAS,Northern,FY8 2JE,St Annes-on-Sea,53.75283012,"30,036",-3.029419927
"South Road, Waterloo, Liverpool, L22 0LY",WLO,Merseyrail,L22 0LY,Waterloo (Merseyside),53.47500003,"36,069",-3.025599904
"Europa Boulevard, Birkenhead, CH41 4PP",CNP,Merseyrail,CH41 4PP,Conway Park,53.39330012,"38,157",-3.022309878
"Argyle Street South, Birkenhead, CH41 9DB",BKC,Merseyrail,CH41 9DB,Birkenhead Central,53.38846006,"38,200",-3.021029947
"Cwmbran Railway Station, Somerset Industrial Estate, Cwmbran, NP44 1QX",CWM,Arriva Trains Wales,NP44 1QX,Cwmbran,51.65908003,"76,239",-3.017409951
"Gwersyllt Railway Station, Hope Street, Gwersyllt, LL11 4LD",GWE,Arriva Trains Wales,LL11 4LD,Gwersyllt,53.07336006,"41,031",-3.017409951
"Wallyford, East Lothian, EH21 8DZ",WAF,ScotRail,EH21 8DZ,Wallyford,55.94133987,"4,809",-3.016849955
"Old Chester Road, Birkenhead, Merseyside, CH41 9AN",GNL,Merseyrail,CH41 9AN,Green Lane,53.38344,"38,202",-3.016569889
"Liverpool Road, Birkdale, Southport, PR8 4AF",BDL,Merseyrail,PR8 4AF,Birkdale,53.63323009,"36,060",-3.014349951
"Hamilton Street, Birkenhead, Merseyside, CH41 1AL",BKQ,Merseyrail,CH41 1AL,Birkenhead Hamilton Square,53.39428008,"38,185",-3.014319953
"Bedford Road, Rick Ferry, Birkenhead, Merseyside, CH42 2AT",RFY,Merseyrail,CH42 2AT,Rock Ferry,53.37214001,"38,201",-3.011189868
"Abergavenny Railway Station, Station Approach, Abergavenny, NP7 5HS",AGV,Arriva Trains Wales,NP7 5HS,Abergavenny,51.81631008,"76,251",-3.010309992
"Station Road, Cupar, Fife, KY15 5HX",CUP,ScotRail,KY15 5HX,Cupar,56.31752998,"3,205",-3.009659868
"-, Station Approach, Pontypool Road, New Inn, Pontypool, NP4 0QX",PPL,Arriva Trains Wales,NP4 0QX,Pontypool & New Inn,51.69922,"76,245",-3.007469927
"Seaforth Road, Liverpool, Merseyside, L21 3TX",SFL,Merseyrail,L21 3TX,Seaforth & Litherland,53.46528008,"36,070",-3.007169953
"Station Yard, Axminster, EX13 5PF",AXM,South West Trains,EX13 5PF,Axminster,50.77921007,"83,466",-3.004369975
"Old Chester Road, Bebington, CH63 7LA",BEB,Merseyrail,CH63 7LA,Bebington,53.35724006,"38,208",-3.003309979
"Chapel Street, Southport, PR8 1BE",SOP,Merseyrail,PR8 1BE,Southport,53.64683006,"35,001",-3.002259936
"Wrexham General Railway Station, Mold Road, LL11 1EL",WRX,Arriva Trains Wales,LL11 1EL,Wrexham General,53.05041005,"41,130",-2.999019951
"Newport Railway Station,, High Street,, Newport.,, NP20 4AX",NWP,Arriva Trains Wales,NP20 4AX,Newport (South Wales),51.5898901,"76,401",-2.997759927
"Greendale Road, Port Sunlight, Merseyside, CH62 4XB",PSL,Merseyrail,CH62 4XB,Port Sunlight,53.34859006,"38,210",-2.997419867
"Woodland Road, Lancashire, FY8 1AG",AFV,Northern,FY8 1AG,Ansdell & Fairhaven,53.74184006,"30,037",-2.997419867
"Wrexham Central Railway Station, Hill Street, Wrexham, LL11 1SN",WXC,Arriva Trains Wales,LL11 1SN,Wrexham Central,53.04612003,"41,111",-2.995859869
"Oriel Road, Bootle, Liverpool, L20 7AD",BOT,Merseyrail,L20 7AD,Bootle Oriel Road,53.44734004,"36,072",-2.995209882
"Spital Road, Spital, Merseyside, CH62 2AD",SPI,Merseyrail,CH62 2AD,Spital,53.33981011,"38,214",-2.993599979
"Washington parade, Bootle, Liverpool, L20 5BW",BNW,Merseyrail,L20 5BW,Bootle New Strand,53.45403013,"36,071",-2.992939902
"James Street, Liverpool, Merseyside, L2 7PQ",LVJ,Merseyrail,L2 7PQ,Liverpool James Street,53.40494004,"38,184",-2.991989941
"Breck Road, Poulton-le-Fylde, Lancashire, FY6 7AA",PFY,Northern,FY6 7AA,Poulton-le-Fylde,53.84796011,"30,041",-2.991249961
"St John Street, Bridgwater, Somerset, TA6 5HB",BWT,Great Western Railway,TA6 5HB,Bridgwater,51.12781013,"81,924",-2.990759914
"Moorfields, Liverpool, Merseyside, L2 2BS",MRF,Merseyrail,L2 2BS,Moorfields,53.40873007,"38,181",-2.988969891
"Allport Road, Bromborough, CH63 0JG",BOM,Merseyrail,CH63 0JG,Bromborough,53.32078008,"38,218",-2.988509978
"Station Road, Dalston, Cumbria, CA5 7LT",DLS,Northern,CA5 7LT,Dalston (Cumbria),54.84572012,"9,213",-2.988149874
"The Rake, Bromborough, CH62 7AL",BMR,Merseyrail,CH62 7AL,Bromborough Rake,53.3302801,"38,216",-2.988039974
"Bank Hall Street, Liverpool, L20 8BX",BAH,Merseyrail,L20 8BX,Bank Hall,53.43741011,"36,075",-2.987379897
"1 Marsh Street, Liverpool, L20 2BN",KKD,Merseyrail,L20 2BN,Kirkdale,53.44079012,"36,057",-2.983819895
"Eastham Rake, Eastham Rake, CH62 9AL",ERA,Merseyrail,CH62 9AL,Eastham Rake,53.30583009,"38,220",-2.98143988
"Ranelagh Street, Liverpool, L1 1JT",LVC,Merseyrail,L1 1JT,Liverpool Central,53.40426006,"36,080",-2.979719942
"Meols Cop Road, SOUTHPORT, Merseyside, PR8 6AY",MEC,Northern,PR8 6AY,Meols Cop,53.64644009,"35,016",-2.97780993
"Liverpool Lime Street station, Liverpool, L1 1JD",LIV,Network Rail,L1 1JD,Liverpool Lime Street,53.40841005,"36,151",-2.977289886
"Sefton Street, Liverpool, L8 6XP",BRW,Merseyrail,L8 6XP,Brunswick,53.38318012,"36,082",-2.976309927
"Hooton Road, Hooton, Ellesmere Port, CH66 7NL",HOO,Merseyrail,CH66 7NL,Hooton,53.29808001,"38,302",-2.975559994
"Market Street, Highbridge, Somerset, TA9 3BT",HIG,Great Western Railway,TA9 3BT,Highbridge & Burnham,51.2191501,"81,915",-2.973999997
"Station Approach, Weston super Mare, Somerset, BS23 1XY",WSM,Great Western Railway,BS23 1XY,Weston-super-Mare,51.34515006,"81,911",-2.973109894
"Station Road, Cark, LA11 7NL",CAK,Northern,LA11 7NL,Cark & Cartmel,54.18185003,"11,331",-2.972919956
"Prestonpans, East Lothian, EH33 1NG",PST,ScotRail,EH33 1NG,Prestonpans,55.95201988,"4,811",-2.971099937
"South Union Street, Dundee, DD1 4BY",DEE,ScotRail,DD1 4BY,Dundee,56.45640998,"3,054",-2.970709971
"Station Square, Lytham, Lancashire, FY8 5NJ",LTM,Northern,FY8 5NJ,Lytham,53.73810007,"30,038",-2.966549887
"Walton Park, Liverpool, L9 1EY",WAO,Merseyrail,L9 1EY,Walton (Merseyside),53.45616007,"36,029",-2.964339902
"Orrell Lane, Liverpool, Merseyside, L9 8BU",OPK,Merseyrail,L9 8BU,Orrell Park,53.46223003,"36,028",-2.962999976
"Rice Lane, Liverpool, L9 3BY",RIL,Merseyrail,L9 3BY,Rice Lane,53.45673002,"36,053",-2.962129917
"Ormskirk Road, Liverpool, L9 5BE",AIN,Merseyrail,L9 5BE,Aintree,53.47362002,"36,027",-2.956089954
"Capenhurst Lane, Chester, CH1 6HE",CPU,Merseyrail,CH1 6HE,Capenhurst,53.25677,"38,304",-2.953159897
"Copy Lane, Bootle, Liverpool, Merseyside, L30 8RD",ORN,Merseyrail,L30 8RD,Old Roan,53.48674003,"36,015",-2.9531299
"Bucknell Railway Station, Weston Road, Bucknell, SY7 0AD",BUK,Arriva Trains Wales,SY7 0AD,Bucknell,52.35720012,"79,097",-2.947329916
"Lytham Road, Moss Side, Lancashire, FY8 4NB",MOS,Northern,FY8 4NB,Moss Side,53.76480001,"30,039",-2.943949899
"Saville Road, Weston Milton, Weston super Mare, Somerset, BS22 8PF",WNM,Great Western Railway,BS22 8PF,Weston Milton,51.34868007,"81,909",-2.943299911
"Station Road, Little Sutton, Cheshire, CH66 1PA",LTT,Merseyrail,CH66 1PA,Little Sutton,53.28620011,"38,314",-2.939609967
"Longmoor Lane, Liverpool, L9 9EW",FAZ,Merseyrail,L9 9EW,Fazakerley,53.46903002,"36,052",-2.935069871
"Court Square, Carlisle, Cumbria, CA1 1QZ",CAR,Virgin Trains,CA1 1QZ,Carlisle,54.89101009,"9,161",-2.932989965
"Station Road, Maghull, Liverpool, Merseyside, L31 3DE",MAG,Merseyrail,L31 3DE,Maghull,53.50624007,"36,013",-2.932099999
"Priory Road, Kents Bank, Cumbria, LA11 7BG",KBK,Northern,LA11 7BG,Kents Bank,54.17347,"11,341",-2.926339966
"Mersey Road, Liverpool, L17 6AG",AIG,Merseyrail,L17 6AG,Aigburth,53.36581003,"36,086",-2.926079944
"Overpool Lane, Ellesmere Port, CH66 3LW",OVE,Merseyrail,CH66 3LW,Overpool,53.28246013,"38,316",-2.924069986
"Rose Lane, MOSSLEY HILL, Merseyside, L18 8AG",MSH,Northern,L18 8AG,Mossley Hill,53.37872006,"36,185",-2.915809949
"Station Road, Heysham, Lancashire, LA3 2XE",HHB,Northern,LA3 2XE,Heysham Port,54.03328007,"11,611",-2.913509972
"Knowsley Road, Cressington, Liverpool, L19 0PE",CSG,Merseyrail,L19 0PE,Cressington,53.35943,"36,088",-2.911879889
"Hopton Heath Railway Station, Railway Bridge, Hopton Heath, SY7 0QD",HPT,Arriva Trains Wales,SY7 0QD,Hopton Heath,52.39159001,"79,098",-2.911789897
"Station Approach, Worle, Weston super Mare, Somerset, BS22 6WA",WOR,Great Western Railway,BS22 6WA,Worle,51.35787002,"81,906",-2.911489924
"Middlewood Road, Town Green, Ormskirk, Lancashire, L39 6RG",TWN,Merseyrail,L39 6RG,Town Green,53.54173005,"36,011",-2.904039951
"Station Precinct, WINDERMERE, Cumbria, LA23 1AH",WDM,Northern,LA23 1AH,Windermere,54.3796501,"11,001",-2.903199889
"Station Square, GRANGE OVER SANDS, LA11 6EH",GOS,Northern,LA11 6EH,Grange-over-Sands,54.1963401,"11,401",-2.902279926
"Glovers Brow, Kirkby, Liverpool, Merseyside, L32 2AE",KIR,Merseyrail,L32 2AE,Kirkby (Merseyside),53.48742002,"36,050",-2.901139891
"Booker Avenue, West Allerton, Merseyside, L18 7HF",WSA,Northern,L18 7HF,West Allerton,53.37172005,"36,187",-2.900369914
"Whitby Road, Ellesmere Port, CH65 4AR",ELP,Merseyrail,CH65 4AR,Ellesmere Port,53.28175001,"38,317",-2.897269963
"Long Lane, Ormskirk, L39 5BT",AUG,Merseyrail,L39 5BT,Aughton Park,53.55445001,"36,005",-2.89685
"Bowring Park Road, Broad Green, Liverpool, L14 3NG",BGE,Northern,L14 3NG,Broad Green,53.406409,"36,602",-2.893526
"Junction Road, St Andrews, KY16 0AA",LEU,ScotRail,KY16 0AA,Leuchars (for St. Andrews),56.37508,"3,203",-2.893399898
"Mill Lane, Chester, CH2 1BS",BAC,Merseyrail,CH2 1BS,Bache,53.21132009,"38,306",-2.889909981
"Longniddry, East Lothian, EH32 0LS",LND,ScotRail,EH32 0LS,Longniddry,55.97674995,"4,817",-2.889879984
"Woolton Road, Garston, L19 5NE",LPY,Merseyrail,L19 5NE,Liverpool South Parkway,53.36060003,"36,091",-2.887700133
"Station Road, Wesham, PRESTON, Lancashire, PR4 3AA",KKM,Northern,PR4 3AA,Kirkham & Wesham,53.78828001,"30,044",-2.883800071
"Broome Railway Station, Aston on Clun, Craven Arms, SY7 0NT",BME,Arriva Trains Wales,SY7 0NT,Broome,52.42407003,"79,099",-2.883050001
"Station Approach, Ormskirk, Lancashire, L39 2YN",OMS,Merseyrail,L39 2YN,Ormskirk,53.56881,"36,001",-2.881340017
"Chester Railway Station, City Road, Chester, CH1 3NS",CTR,Arriva Trains Wales,CH1 3NS,Chester,53.19631011,"40,320",-2.879860058
"Marine Road, Morecambe, Lancashire, LA4 4DE",MCM,Northern,LA4 4DE,Morecambe,54.070368,"11,701",-2.875392
"Broughty Ferry, Dundee City, DD5 2DX",BYF,ScotRail,DD5 2DX,Broughty Ferry,56.46628988,"3,041",-2.868180052
"Railway Station, New Lane, Nr Burscough, Lancashire, L40 0RY",NLN,Northern,L40 0RY,New Lane,53.61041003,"35,020",-2.866380076
"Stow Station, 41 Station Road, Stow, TD1 2SQ",SOI,ScotRail,TD1 2SQ,Stow,55.69201993,"4,713",-2.865310125
"Speke Road, Woolton, Liverpool, Merseyside, L25 0NN",HNX,Merseyrail,L25 0NN,Hunts Cross,53.35994009,"36,702",-2.856140078
"Station Road, off Roby Road, HUYTON, Merseyside, L36 4HU",ROB,Northern,L36 4HU,Roby,53.40953004,"36,603",-2.855620033
"Blacklow Brow, HUYTON, Merseyside, L36 5XE",HUY,Northern,L36 5XE,Huyton,53.40869012,"36,605",-2.844500023
"Station Approach, Burscough, Nr Ormskirk, Lancashire, L40 0RZ",BCB,Northern,L40 0RZ,Burscough Bridge,53.60503001,"35,022",-2.842530017
"Junction Lane, Burscough, L40 5SP",BCJ,Northern,L40 5SP,Burscough Junction,53.59711003,"30,157",-2.839400068
"Bare Lane, Morecambe, Lancashire, LA4 6LL",BAR,Northern,LA4 6LL,Bare Lane,54.07533005,"11,711",-2.836460057
"Balmossie, -, DD5 4QH",BSI,ScotRail,DD5 4QH,Balmossie,56.47623999,"3,040",-2.836110043
"Craven Arms Railway Station, Station Crescent, Shrewsbury Road, Craven Arms, SY7 9PY",CRV,Arriva Trains Wales,SY7 9PY,Craven Arms,52.44204007,"76,379",-2.835660083
"Wetheral Railway Station, Wetheral, Carlisle, Cumbria, CA4 8JP",WRL,Northern,CA4 8JP,Wetheral,54.88448008,"13,299",-2.833230026
"Hollies Lane, HALEWOOD, Merseyside, L26 0TH",HED,Northern,L26 0TH,Halewood,53.36770013,"36,704",-2.828180112
"Station Road, Yatton, Somerset, BS49 4AJ",YAT,Great Western Railway,BS49 4AJ,Yatton,51.39152007,"81,905",-2.826860093
"Shell Oil Refinery, Stanlow, Cheshire, CH2 4NU",SNT,Northern,CH2 4NU,Stanlow & Thornton,53.27427004,"38,372",-2.82655003
"Station Road, ARNSIDE, Cumbria, LA5 0HQ",ARN,Northern,LA5 0HQ,Arnside,54.20197006,"11,403",-2.825200014
"Station Road, STAVELEY, Cumbria, LA8 9NG",SVL,Northern,LA8 9NG,Staveley (Cumbria),54.37252001,"11,003",-2.818940116
"Station Road, Salwick, Lancashire, PR4 0YH",SLW,Northern,PR4 0YH,Salwick,53.77834013,"30,050",-2.815790124
"Monifieth, Angus, DD5 4NN",MON,ScotRail,DD5 4NN,Monifieth,56.47968996,"3,039",-2.81288011
"Station Lane, Ince, Cheshire, CH2 4NG",INE,Northern,CH2 4NG,Ince & Elton,53.27533003,"38,379",-2.811490007
"Church Road, Rufford, Lancashire, L40 1TB",RUF,Northern,L40 1TB,Rufford,53.63463001,"30,155",-2.808470094
"Meeting House Lane, Lancaster, Lancashire, LA1 5NW",LAN,Virgin Trains,LA1 5NW,Lancaster,54.04876006,"11,720",-2.808380102
"Galashiels Station, Ladhope Vale, Galashiels, TD1 1BP",GAL,ScotRail,TD1 1BP,Galashiels,55.61840989,"4,715",-2.807980046
"Church Stretton Railway Station, Station Approach, Church Stretton, SY6 6PG",CTT,Arriva Trains Wales,SY6 6PG,Church Stretton,52.53691003,"64,241",-2.803700109
"Red Bridge Lane, Silverdale, Lancashire, LA5 0SW",SVR,Northern,LA5 0SW,Silverdale,54.16842009,"11,405",-2.802620069
"Bridge Road, PRESCOT, Merseyside, L34 5SN",PSC,Northern,L34 5SN,Prescot,53.42736005,"36,611",-2.801680062
"Hoscar Moss Road, Hoscar, Lancashire, L40 4BL",HSC,Northern,L40 4BL,Hoscar,53.59653013,"35,024",-2.795410074
"Junction Road, St. Helens, Merseyside, WA11 8SJ",RNF,Northern,WA11 8SJ,Rainford,53.51019004,"36,046",-2.793680047
"Drive Way, WHISTON, Merseyside, L35 3TT",WHN,Northern,L35 3TT,Whiston,53.41426008,"35,437",-2.787440056
"Portico Lane, Eccleston Park, PRESCOT, Merseyside, L35 7JS",ECL,Northern,L35 7JS,Eccleston Park,53.43044009,"36,615",-2.779990083
"Station Road, Crewkerne, TA18 8AL",CKN,South West Trains,TA18 8AL,Crewkerne,50.87626002,"83,470",-2.779380047
"Severn Tunnel Junction Railway Stat, Station Road, Rogiet, NP26 3SP",STJ,Arriva Trains Wales,NP26 3SP,Severn Tunnel Junction,51.58695009,"76,090",-2.778070118
"Station Road, Croston, Lancashire, PR26 9SE",CSO,Northern,PR26 9SE,Croston,53.66613007,"30,153",-2.778070118
"Liverpool Road, Hough Green, WIDNES, Cheshire, WA8 7XU",HGN,Northern,WA8 7XU,Hough Green,53.37240003,"36,703",-2.775130107
"Drem, -, EH39 5LW",DRM,ScotRail,EH39 5LW,Drem,56.00731996,"4,821",-2.773490071
"Armathwaite Station, Armathwaite, Near Carlisle, Cumbria, CA4 9PL",AWT,Northern,CA4 9PL,Armathwaite,54.80786008,"9,415",-2.771230045
"Market Street, CARNFORTH, Lancashire, LA5 9ET",CNF,Northern,LA5 9ET,Carnforth,54.12955009,"11,525",-2.770340079
"Helsby Railway Station, Station Road, Helsby, WA6 0AE",HSB,Arriva Trains Wales,WA6 0AE,Helsby,53.2746101,"38,384",-2.77027013
"The Common, WIGAN, WN8 7NU",PBL,Northern,WN8 7NU,Parbold,53.58985013,"35,026",-2.77027013
"Station Road, BURNESIDE, Cumbria, LA9 6RD",BUD,Northern,LA9 6RD,Burneside (Cumbria),54.35459006,"11,005",-2.767810076
"Tweedbank Station, 4 Tweedbank, Tweedbank, TD1 3SP",TWB,ScotRail,TD1 3SP,Tweedbank,55.60477992,"4,714",-2.759540085
"Thatto Heath Road, ST. HELENS, Merseyside, WA9 5PE",THH,Northern,WA9 5PE,Thatto Heath,53.43627007,"36,616",-2.758920095
"Ullswater Road, Penrith, Cumbria, CA11 7JQ",PNR,Virgin Trains,CA11 7JQ,Penrith (North Lakes),54.66178004,"9,312",-2.758380007
"Shrewsbury Railway Station, Castle Foregate, Shrewsbury, SY1 2DQ",SHR,Arriva Trains Wales,SY1 2DQ,Shrewsbury,52.71183005,"64,224",-2.75030009
"Station Road, Backwell, Somerset, BS48 3LH",NLS,Great Western Railway,BS48 3LH,Nailsea & Backwell,51.41944009,"81,903",-2.749110014
"Pimbo Lane, Upholland, Nr Wigan, Lancashire, WN8 9QD",UPL,Northern,WN8 9QD,Upholland,53.53111004,"36,044",-2.744910115
"Station Road, KENDAL, Cumbria, LA9 6BT",KEN,Northern,LA9 6BT,Kendal,54.33218001,"11,007",-2.740970102
"Shaw Street, Runcorn, Cheshire, WA7 5UB",RUN,Virgin Trains,WA7 5UB,Runcorn,53.33867008,"36,501",-2.739120085
"Yorton Railway Station, Station Road, Yorton, Shrewsbury, SY4 3EP",YRT,Arriva Trains Wales,SY4 3EP,Yorton,52.80924011,"42,241",-2.736060084
"Victoria Avenue, WIDNES, Cheshire, WA8 7TJ",WID,Northern,WA8 7TJ,Widnes,53.37789009,"36,705",-2.733930001
"Leominster Railway Station, Worcester Road, Leominster, Herefordshire, HR6 8AR",LEO,Arriva Trains Wales,HR6 8AR,Leominster,52.22576014,"76,373",-2.73146013
"Shaw Street, ST. HELENS, Merseyside, WA10 1DQ",SNH,Northern,WA10 1DQ,St Helens Central,53.45274011,"35,405",-2.730690017
"North Berwick, East Lothian, EH39 4BY",NBW,ScotRail,EH39 4BY,North Berwick,56.05755989,"4,824",-2.730490125
"Frodsham Railway Station, Church Street, Frodsham, WA6 7DN",FRD,Arriva Trains Wales,WA6 7DN,Frodsham,53.29562009,"35,703",-2.725110104
"Oxenholme Road, Kendal, Cumbria, LA9 7HG",OXN,Virgin Trains,LA9 7HG,Oxenholme Lake District,54.30563006,"11,012",-2.723330036
"Appley Bridge, Lancashire, WN6 9AE",APB,Northern,WN6 9AE,Appley Bridge,53.57969003,"35,050",-2.721400116
"Marshalls Cross Road, ST. HELENS, Merseyside, WA9 3BZ",LEG,Northern,WA9 3BZ,Lea Green,53.44080008,"35,447",-2.721150048
"Station Road, Moldsworth, Cheshire, WA6 9EG",MLD,Northern,WA6 9EG,Mouldsworth,53.23665011,"37,065",-2.72021004
"Golf Street, -, DD7 7JG",GOF,ScotRail,DD7 7JG,Golf Street,56.49766995,"3,032",-2.718530054
"Ludlow Railway Station, Station Drive, Ludlow, SY8 2PQ",LUD,Arriva Trains Wales,SY8 2PQ,Ludlow,52.37132013,"76,377",-2.717800028
"Wem Railway Station, Aston Road, Wem, Shrewsbury, SY4 5AZ",WEM,Arriva Trains Wales,SY4 5AZ,Wem,52.85562007,"42,231",-2.717640087
"Church Road, Orrell, Nr Wigan, Greater Manchester, WN5 8TH",ORR,Northern,WN5 8TH,Orrell,53.53062013,"36,042",-2.711130121
"Hereford Railway Station, Barrs Court, Station Approach, Hereford, HR1 1BB",HFD,Arriva Trains Wales,HR1 1BB,Hereford,52.06128,"76,357",-2.709040126
"Fishergate, Preston, Lancashire, PR1 8AP",PRE,Virgin Trains,PR1 8AP,Preston (Lancs),53.75609002,"30,120",-2.706510124
"Brampton Station, Brampton, Near Carlisle, CA8 1HW",BMP,Northern,CA8 1HW,Brampton (Cumbria),54.93328001,"13,302",-2.702820043
"Station Road, Sutton, ST. HELENS, Merseyside, WA9 3LA",SHJ,Northern,WA9 3LA,St Helens Junction,53.43392005,"35,449",-2.700060016
"Carnoustie, -, DD7 6AY",CAN,ScotRail,DD7 6AY,Carnoustie,56.50125995,"3,031",-2.700020065
"Gloucester Road, Avonmouth, Bristol, Bristol, City of, BS11 9JB",AVN,Great Western Railway,BS11 9JB,Avonmouth,51.4999701,"81,240",-2.698840079
"St Andrews Road, Avonmouth, Bristol, BS11 9HS",SAR,Great Western Railway,BS11 9HS,St Andrews Road,51.50835013,"81,230",-2.696120003
"Lazonby &amp; Kirkoswald Railway Statio, Lazonby, Near Penrith, Cumbria, CA10 1DL",LZB,Northern,CA10 1DL,Lazonby & Kirkoswald,54.76404012,"9,416",-2.69537007
"Watkin Lane, Lostock Hall, Lancashire, PR5 5NF",LOH,Northern,PR5 5NF,Lostock Hall,53.72468008,"30,142",-2.693120134
"Gathurst Road, Gathurst, Nr Wigan, Greater Manchester, WN5 0LW",GST,Northern,WN5 0LW,Gathurst,53.55598001,"35,102",-2.692380018
"Station Brow, Golden Hill, LEYLAND, Lancashire, PR25 3NN",LEY,Northern,PR25 3NN,Leyland,53.69818003,"30,162",-2.688510089
"Prees Railway Station, Station Road, Prees, Whitchurch, Shropshire, SY13 2DW",PRS,Arriva Trains Wales,SY13 2DW,Prees,52.8987801,"42,226",-2.682820005
"Station Road, Shirehampton, Bristol, BS11 9XA",SHH,Great Western Railway,BS11 9XA,Shirehampton,51.48403006,"81,252",-2.68123001
"Station Road, Garswood, WIGAN, Lancashire, WN4 0SA",GSW,Northern,WN4 0SA,Garswood,53.48897006,"35,395",-2.672820122
"Whitchurch Railway Station, Station Road, Whitchurch, SY13 1RL",WTC,Arriva Trains Wales,SY13 1RL,Whitchurch (Shropshire),52.96747003,"42,221",-2.672810032
"Chepstow Railway Station, Station Road, Chepstow, NP16 5PD",CPW,Arriva Trains Wales,NP16 5PD,Chepstow,51.6398801,"76,079",-2.671700131
"Runcorn East Railway Station, Barnfield Avenue, Runcorn, WA7 6EP",RUE,Arriva Trains Wales,WA7 6EP,Runcorn East,53.31987007,"35,701",-2.670930018
"Balshaw Lane, Euxton, Lancashire, PR7 6DX",EBA,Northern,PR7 6DX,Euxton Balshaw Lane,53.67101009,"30,163",-2.667070043
"Billinge Road, Pemberton, Nr Wigan, Greater Manchester, WN5 9HX",PEM,Northern,WN5 9HX,Pemberton,53.53187006,"36,040",-2.666760116
"Severn Beach Road, Severn Beach, Bristol, South Gloucestershire, BS35 4PQ",SVB,Great Western Railway,BS35 4PQ,Severn Beach,51.56090013,"81,211",-2.665770068
"Station Road, Preston, PR5 6EA",BMB,Northern,PR5 6EA,Bamber Bridge,53.72658001,"30,133",-2.660490129
"Station Approach, Buckshaw Village, Chorley, PR7 7EY",BSV,Northern,PR7 7EY,Buckshaw Parkway,53.67340006,"30,201",-2.658760101
"Station Approach Road, Sankey, WARRINGTON, Cheshire, WA5 1RQ",SNK,Northern,WA5 1RQ,Sankey for Penketh,53.39194002,"36,706",-2.649600007
"Stoney Bank, Langwathby, Near Penrith, Cumbria, CA10 1NZ",LGW,Northern,CA10 1NZ,Langwathby,54.69982006,"9,418",-2.649110096
"Sea Mills Lane, Sea Mills, Bristol, BS9 1SU",SML,Great Western Railway,BS9 1SU,Sea Mills,51.47792002,"81,255",-2.647880069
"Wigan Road, Wigan, WN4 0AR",BYN,Northern,WN4 0AR,Bryn,53.50088009,"35,394",-2.647620047
"Railway View, Queen Street, NEWTON LE WILLOWS, Merseyside, WA12 9AU",ERL,Northern,WA12 9AU,Earlestown,53.4513001,"35,325",-2.63755008
"Wallgate, Wigan, Lancashire, WN1 1BJ",WGN,Virgin Trains,WN1 1BJ,Wigan North Western,53.5438,"35,136",-2.633550072
"Wallgate, WIGAN, WN1 1BB",WGW,Northern,WN1 1BB,Wigan Wallgate,53.54468001,"35,111",-2.633350044
"Chapel Street, CHORLEY, PR7 1BS",CRL,Northern,PR7 1BS,Chorley,53.65227007,"30,213",-2.628280087
"Station Road, Pilning, South Gloucestershire, BS35 4JT",PIL,Great Western Railway,BS35 4JT,Pilning,51.5490201,"81,118",-2.627770132
"Warrington Road, Northwich, Cheshire, CW8 2UH",CUD,Northern,CW8 2UH,Cuddington,53.24687007,"37,069",-2.620750075
"Southworth Road, NEWTON LE WILLOWS, Merseyside, WA12 9SF",NLW,Northern,WA12 9SF,Newton-le-Willows,53.45355003,"35,321",-2.613920092
"Station Approach, Sherborne Road, Yeovil, Somerset, BA21 5DD",YVP,Great Western Railway,BA21 5DD,Yeovil Pen Mill,50.94472007,"82,311",-2.613400047
"Stoford, Yeovil, BA22 9UU",YVJ,South West Trains,BA22 9UU,Yeovil Junction,50.92478002,"82,341",-2.612800101
"Whiteladies Road, Clifton, Bristol, BS8 2PN",CFN,Great Western Railway,BS8 2PN,Clifton Down,51.46487009,"81,259",-2.610360091
"Ince Green Lane, Ince, Nr Wigan, Greater Manchester, WN2 2DA",INC,Northern,WN2 2DA,Ince (Manchester),53.54002007,"35,121",-2.609780051
"Insch, Aberdeenshire, AB52 6PU",INS,ScotRail,AB52 6PU,Insch,57.33311999,"2,029",-2.60849003
"Parson Street, Bedminster, Bristol, BS3 5PU",PSN,Great Western Railway,BS3 5PU,Parson Street,51.43271009,"81,819",-2.607650105
"Parker Street, Warrington, Cheshire, WA1 1LW",WBQ,Virgin Trains,WA1 1LW,Warrington Bank Quay,53.38447,"35,531",-2.602010061
"Railway Road, Adlington, Preston, PR6 9RS",ADL,Northern,PR6 9RS,Adlington (Lancs),53.61754012,"30,321",-2.600860073
"South Road, Redland, Bristol, BS6 6QP",RDA,Great Western Railway,BS6 6QP,Redland,51.4687801,"81,260",-2.598640134
